Latitude,Longitude,opening_hours,accessibility_info,image,location_info,address,id,email,phone,ballot_box_ordering_nr,polling_station_nr,voting_above_district,voting_above_district_end_date,auxiliary_storage_labeling_positionx,auxiliary_storage_labeling_positiony
59.3999304931955,27.2831957272618,"{ ""2023-02-27 - 2023-03-04"": [ ""12:00 - 20:00"" ], ""2023-03-05"": [ ""09:00 - 20:00"" ] }",Ligipääsetavus tagatud,478-1006.jpg,Kohtla-Järve Linnavalitsus,"Keskallee 19, Järve linnaosa, Kohtla-Järve linn, Ida-Viru maakond","1006",jelena.versinina@kjlv.ee,"+37258887137","+37257847462","1",true,2023/03/03,,
59.4051736738912,27.2913143259715,"{ ""2023-03-03 - 2023-03-04"": [ ""12:00 - 20:00"" ], ""2023-03-05"": [ ""09:00 - 20:00"" ] }",Ligipääsetavus tagatud,479-1008.jpg,Kohtla-Järve Slaavi Põhikool,"Pärna tn 49, Järve linnaosa, Kohtla-Järve linn, Ida-Viru maakond","1008",irena.varkki@gmail.com,"+37258887138","+37257847462","2",false,2023/03/03,26.1636072065584,58.2999989835351
59.3235937730885,27.4151231141615,"{ ""2023-03-03 - 2023-03-04"": [ ""12:00 - 20:00"" ], ""2023-03-05"": [ ""09:00 - 20:00"" ] }",Ligipääsetavus tagatud,480-1010.jpg,Ahtme klubi,"Mardi tn 6, Ahtme linnaosa, Kohtla-Järve linn, Ida-Viru maakond","1010",maie.kiik@kjlv.ee,"+37258887139","+37257847462","3",false,2023/03/03,26.1636072065584,58.2999989835351
59.3327504899267,27.4162474217223,"{ ""2023-03-03 - 2023-03-04"": [ ""12:00 - 20:00"" ], ""2023-03-05"": [ ""09:00 - 20:00"" ] }",Ligipääsetavus tagatud,481-1012.jpg,Kohtla-Järve Tammiku põhikool,"Puru tee 38, Ahtme linnaosa, Kohtla-Järve linn, Ida-Viru maakond","1012",olga.ivanova@kjlv.ee,"+37258887140","+37257847462","4",false,2023/03/03,26.1636072065584,58.2999989835351
59.3240190106517,27.4294813273075,"{ ""2023-03-03 - 2023-03-04"": [ ""12:00 - 20:00"" ], ""2023-03-05"": [ ""09:00 - 20:00"" ] }",Ligipääsetavus tagatud,482-1014.jpg,Kohtla-Järve Ahtme Põhikool,"Altserva tn 6, Ahtme linnaosa, Kohtla-Järve linn, Ida-Viru maakond","1014",galina.villers@gmail.com,"+37258887141","+37257847462","5",false,2023/03/03,26.1636072065584,58.2999989835351
59.3392198388887,27.2875780022742,"{ ""2023-03-03 - 2023-03-04"": [ ""12:00 - 20:00"" ], ""2023-03-05"": [ ""09:00 - 20:00"" ] }",Ligipääsetavus tagatud,483-1016.jpg,Sompa klubi,"Humala tn 1, Sompa linnaosa, Kohtla-Järve linn, Ida-Viru maakond","1016",anneli.jarvi@kjlv.ee,"+37258887142","+37257847462","6",false,2023/03/03,26.1636072065584,58.2999989835351
59.3981799232347,27.3447809923192,"{ ""2023-03-03 - 2023-03-04"": [ ""12:00 - 20:00"" ] }",Ligipääsetavus tagatud,484-1018.jpg,Osaühingu OSK GRUPP kontor,"Lehe tn 8, Kukruse linnaosa, Kohtla-Järve linn, Ida-Viru maakond","1018",uljana.zaidentsal@kjlv.ee,"+37258887143","+37257847462","7",false,2023/03/03,,
59.3700670605029,27.5680881459338,"{ ""2023-03-05"": [ ""09:00 - 20:00"" ] }",Ligipääsetavus tagatud,484-1019.jpg,Oru klubi,"Vikerkaare tn 2, Oru linnaosa, Kohtla-Järve linn, Ida-Viru maakond","1019",uljana.zaidentsal@kjlv.ee,"+37258887143","+37257847462","7",false,2023/03/03,,
58.8081821712927,25.4311988159034,"{ ""2023-02-27 - 2023-03-04"": [ ""12:00 - 20:00"" ], ""2023-03-05"": [ ""09:00 - 20:00"" ] }",hoone juures parkla,485-1021.jpg,Türi Kultuurikeskus,"Hariduse tn 1, Türi linn, Türi vald, Järva maakond","1021",lii.laanemets@tyri.ee,"+37258887188",,"1",true,2023/03/03,,
58.8184305866983,25.413026562202,"{ ""2023-03-03 - 2023-03-04"": [ ""12:00 - 20:00"" ], ""2023-03-05"": [ ""09:00 - 20:00"" ] }",hoone juures parkla,486-1022.jpg,Türi Ühisgümnaasium,"Tolli tn 62, Türi linn, Türi vald, Järva maakond","1022",lii.laanemets@tyri.ee,"+37258887189","+37258887189","2",false,2023/03/03,26.1636072065584,58.2999989835351
58.7592906747307,25.5654216232032,"{ ""2023-03-04"": [ ""12:00 - 20:00"" ], ""2023-03-05"": [ ""09:00 - 20:00"" ] }",hoone juures parkla,487-1026.jpg,Oisu rahvamaja,"Estonia pst 1, Oisu alevik, Türi vald, Järva maakond","1026",lii.laanemets@tyri.ee,"+37258887190",,"3",false,2023/03/03,,
58.8324703513672,25.1466764899565,"{ ""2023-03-03 - 2023-03-04"": [ ""12:00 - 20:00"" ], ""2023-03-05"": [ ""09:00 - 20:00"" ] }",hoone juures parkla,488-1028.jpg,Käru põhikool,"Aia tn 20, Käru alevik, Türi vald, Järva maakond","1028",lii.laanemets@tyri.ee,"+37258887191",,"4",false,2023/03/03,26.1636072065584,58.2999989835351
58.890171,25.451928,"{ ""2023-03-03 - 2023-03-04"": [ ""12:00 - 20:00"" ], ""2023-03-05"": [ ""09:00 - 20:00"" ] }",hoone juures parkla,489-1029.jpg,Väätsa rahvamaja,"Pikk tn 3, Väätsa alevik, Türi vald, Järva maakond","1029",lii.laanemets@tyri.ee,"+37258887192",,"5",false,2023/03/03,26.1636072065584,58.2999989835351
59.3544487821211,24.8947285394572,"{ ""2023-02-27 - 2023-03-04"": [ ""12:00 - 20:00"" ], ""2023-03-05"": [ ""09:00 - 20:00"" ] }",Sissepääs Rae Kultuurikeskuse peauksest. Ligipääsetav lapsevankri ja ratastooliga.,492-1033.jpg,Rae Kultuurikeskus,"Aruküla tee 9, Jüri alevik, Rae vald, Harju maakond","1033",meeli.vaarik@rae.ee,"+37258887110","+37258887110","1",true,2023/03/03,,
59.396401876127,24.8098543106851,"{ ""2023-03-03 - 2023-03-04"": [ ""12:00 - 20:00"" ], ""2023-03-05"": [ ""09:00 - 20:00"" ] }",Ligipääs nii ratastooli kui ka lapsekäruga. Hääletamisruum asub lasteaia osas.,493-1035.jpg,Peetri Lasteaed-Põhikool,"Pargi tee 6, Peetri alevik, Rae vald, Harju maakond","1035",kaia@peetri.ee,"+3725283260","+37258887111","2",false,2023/03/03,26.1636072065584,58.2999989835351
59.4021855517001,24.9416294891695,"{ ""2023-03-03 - 2023-03-04"": [ ""12:00 - 20:00"" ], ""2023-03-05"": [ ""09:00 - 20:00"" ] }",Ligipääs nii ratastooli kui ka lapsevankriga.,494-1038.jpg,Lagedi Keskusehoone,"Kooli tn 18b, Lagedi alevik, Rae vald, Harju maakond","1038",barbel.salumae@rae.ee,"+37253471448","+37258887112","3",false,2023/03/03,26.1636072065584,58.2999989835351
59.2854264200834,24.9770097699246,"{ ""2023-03-03 - 2023-03-04"": [ ""12:00 - 20:00"" ], ""2023-03-05"": [ ""09:00 - 20:00"" ] }",Ligipääsetav nii ratastooli kui ka lapsevankriga.,495-1039.jpg,Vaida Keskusehoone,"Vana-Vaida tee 7, Vaida alevik, Rae vald, Harju maakond","1039",reet@vaidaraamatukogu.ee,"+3725027181","+37258887113","4",false,2023/03/03,26.1636072065584,58.2999989835351
59.3841333593173,24.8209311410845,"{ ""2023-03-03 - 2023-03-04"": [ ""12:00 - 20:00"" ], ""2023-03-05"": [ ""09:00 - 20:00"" ] }",Ligipääsetav nii ratastooli kui ka lapsevankriga.,496-1041.jpg,Järveküla Kool,"Reti tee 20, Peetri alevik, Rae vald, Harju maakond","1041",ollinliis@gmail.com,"+37256271560","+37258887114","5",false,2023/03/03,26.1636072065584,58.2999989835351
58.692012,25.629615,"{ ""2023-03-03"": [ ""12:00 - 20:00"" ] }","Ratastooliga võimalik hoonesse pääseda koolimaja külguksest, hoone juures parkimisvõimalus. ",487-1043.jpg,Kabala koolimaja,"Pargi tn 2, Kabala küla, Türi vald, Järva maakond","1043",lii.laanemets@tyri.ee,"+37258887190",,"3",false,2023/03/03,,
59.3091296762421,24.4231492114136,"{ ""2023-02-27 - 2023-03-04"": [ ""12:00 - 20:00"" ], ""2023-03-05"": [ ""09:00 - 20:00"" ] }","Ühistranspordipeatus lähedal, kaldtee olemas",504-1046.jpg,Keila Kultuurikeskus,"Keskväljak 12, Keila linn, Harju maakond","1046",klv@keila.ee,"+37258887090","+37258887090","1",true,2023/03/03,,
59.313386095433,24.4114196421196,"{ ""2023-02-27 - 2023-03-04"": [ ""12:00 - 20:00"" ], ""2023-03-05"": [ ""09:00 - 20:00"" ] }","Ühistranspordipeatus lähedal, ratastooliga ligipääsetav",505-1049.jpg,Harju Maakonnaraamatukogu,"Ehitajate tee 1, Keila linn, Harju maakond","1049",klv@keila.ee,"+37258887091","+37258887091","2",true,2023/03/03,,
59.126477,26.250662,"{ ""2023-02-27 - 2023-03-04"": [ ""12:00 - 20:00"" ], ""2023-03-05"": [ ""09:00 - 20:00"" ] }",Ligipääsetav ratastooliga.,507-1050.jpg,Väike-Maarja Seltsimaja,"Pikk tn 2, Väike-Maarja alevik, Väike-Maarja vald, Lääne-Viru maakond","1050",seltsimaja@v-maarja.ee,"+37253024437","+37258887227","1",true,2023/03/03,,
59.045717,26.403833,"{ ""2023-03-03 - 2023-03-04"": [ ""12:00 - 20:00"" ], ""2023-03-05"": [ ""09:00 - 20:00"" ] }",Ligipääsetav ratastooliga.,508-1052.jpg,Simuna Rahvamaja,"Lai tn 5, Simuna alevik, Väike-Maarja vald, Lääne-Viru maakond","1052",lembit.lykk@mail.ee,"+3725212948","+37258887228","2",false,2023/03/03,26.1636072065584,58.2999989835351
58.985372,26.259445,"{ ""2023-03-03 - 2023-03-04"": [ ""12:00 - 20:00"" ], ""2023-03-05"": [ ""09:00 - 20:00"" ] }",Ligipääsetav ratastooliga.,509-1054.jpg,Rakke Kultuurikeskus,"Simuna tee 10, Rakke alevik, Väike-Maarja vald, Lääne-Viru maakond","1054",marikaoim@hot.ee,"+37253907897","+37258887229","3",false,2023/03/03,26.1636072065584,58.2999989835351
59.3624571686794,26.4292090417071,"{ ""2023-02-27 - 2023-03-04"": [ ""12:00 - 20:00"" ], ""2023-03-05"": [ ""09:00 - 20:00"" ] }",Ratastooli ja lapsevankriga ligipääsetav.,510-1056.jpg,Sõmeru keskusehoone,"Kooli tn 2, Sõmeru alevik, Rakvere vald, Lääne-Viru maakond","1056",somerujsk@rakverevald.ee,"+37258887212","+37258887212","1",true,2023/03/03,,
59.3962244441137,26.5652584482518,"{ ""2023-03-03 - 2023-03-04"": [ ""12:00 - 20:00"" ], ""2023-03-05"": [ ""09:00 - 20:00"" ] }",Ratastooliga juurdepääs mööda kaldteed,511-1058.jpg,Uhtna raamatukogu,"Nooruse tn 11, Uhtna alevik, Rakvere vald, Lääne-Viru maakond","1058",uhtnajsk@rakverevald.ee,"+37258887213","+37258887213","2",false,2023/03/03,26.1636072065584,58.2999989835351
59.3324131478902,26.2902239341389,"{ ""2023-03-03 - 2023-03-04"": [ ""12:00 - 20:00"" ], ""2023-03-05"": [ ""09:00 - 20:00"" ] }","Ratastooli ja lapsevankriga juurdepääs maja tagant, kus asub kaldtee.",512-1060.jpg,Lepna raamatukogu,"Lasteaia tn 4, Lepna alevik, Rakvere vald, Lääne-Viru maakond","1060",lepnajsk@rakverevald.ee,"+37258887214","+37258887214","3",false,2023/03/03,26.1636072065584,58.2999989835351
58.8804063943181,24.0780288724412,"{ ""2023-03-03 - 2023-03-04"": [ ""12:00 - 20:00"" ], ""2023-03-05"": [ ""09:00 - 20:00"" ] }",Ligipääsetav,514-1064.jpg,Kullamaa kultuurimaja,"Vallamaja, Kullamaa küla, Lääne-Nigula vald, Lääne maakond","1064",katrin.viks@laanenigula.ee,"+37258887197","+37258887197","1",false,2023/03/03,26.1636072065584,58.2999989835351
58.9575425176588,23.7461713031459,"{ ""2023-02-27 - 2023-03-04"": [ ""12:00 - 20:00"" ], ""2023-03-05"": [ ""09:00 - 20:00"" ] }",Ligipääsetav,515-1065.jpg,Lääne-Nigula vallamaja,"Haapsalu mnt 6, Taebla alevik, Lääne-Nigula vald, Lääne maakond","1065",helgi.laug@laanenigula.ee,"+37258887198","+37258887198","2",true,2023/03/03,,
58.967287,23.889721,"{ ""2023-03-03 - 2023-03-04"": [ ""12:00 - 20:00"" ], ""2023-03-05"": [ ""09:00 - 20:00"" ] }",Ligipääsetav,516-1067.jpg,Palivere noortekeskus,"Jaama tn 7a, Palivere alevik, Lääne-Nigula vald, Lääne maakond","1067",airi.laanemets@laanenigula.ee,"+37258887199","+37258887199","3",false,2023/03/03,26.1636072065584,58.2999989835351
58.9983110609184,24.0586688082414,"{ ""2023-03-03 - 2023-03-04"": [ ""12:00 - 20:00"" ], ""2023-03-05"": [ ""09:00 - 20:00"" ] }",Ligipääsetav,517-1069.jpg,Risti teeninduskeskus,"Tallinna mnt 4, Risti alevik, Lääne-Nigula vald, Lääne maakond","1069",airi.laanemets@laanenigula.ee,"+37258887200","+37258887200","4",false,2023/03/03,26.1636072065584,58.2999989835351
58.9955669159993,23.7177083926151,"{ ""2023-03-03 - 2023-03-04"": [ ""12:00 - 20:00"" ], ""2023-03-05"": [ ""09:00 - 20:00"" ] }",Ligipääsetav,518-1071.jpg,Oru kultuurisaal,"Hansuküla tee 2, Linnamäe küla, Lääne-Nigula vald, Lääne maakond","1071",mare.noupuu@laanenigula.ee,"+37258887201","+37258887201","5",false,2023/03/03,26.1636072065584,58.2999989835351
58.853965531582,23.8026329354189,"{ ""2023-03-03 - 2023-03-04"": [ ""12:00 - 20:00"" ], ""2023-03-05"": [ ""09:00 - 20:00"" ] }",Ligipääsetav,519-1073.jpg,Martna osavallamaja,"Vallamaja, Martna küla, Lääne-Nigula vald, Lääne maakond","1073",enno.heinaste@laanenigula.ee,"+37258887202","+37258887202","6",false,2023/03/03,26.1636072065584,58.2999989835351
59.0067069371134,23.5210295836224,"{ ""2023-03-03 - 2023-03-04"": [ ""12:00 - 20:00"" ], ""2023-03-05"": [ ""09:00 - 20:00"" ] }",Ligipääsetav,520-1075.jpg,Noarootsi osavallamaja,"Pürksi keskus 9, Pürksi küla / Birkas, Lääne-Nigula vald, Lääne maakond","1075",airi.laanemets@laanenigula.ee,"+37258887203","+37258887203","7",false,2023/03/03,26.1636072065584,58.2999989835351
59.2215154208772,23.6781327925641,"{ ""2023-03-03 - 2023-03-04"": [ ""12:00 - 20:00"" ], ""2023-03-05"": [ ""09:00 - 20:00"" ] }",Ligipääsetav,521-1077.jpg,Nõva kool,"Kooli, Nõva küla, Lääne-Nigula vald, Lääne maakond","1077",airi.laanemets@laanenigula.ee,"+37258887204","+37258887204","8",false,2023/03/03,26.1636072065584,58.2999989835351
59.4460417338873,25.4390080157082,"{ ""2023-02-27 - 2023-03-04"": [ ""12:00 - 20:00"" ], ""2023-03-05"": [ ""09:00 - 20:00"" ] }",Sissepääsul paar trepiastet.,523-1079.jpg,Hugo Lepnurme Kuusalu Kunstide Kool,"Kuusalu tee 22, Kuusalu alevik, Kuusalu vald, Harju maakond","1079",tiia-liis.jyrgenson@kuusalu.ee,"+37258887097","+37258887097","1",true,2023/03/03,,
59.5278711739425,25.6993740247785,"{ ""2023-03-05"": [ ""09:00 - 20:00"" ] }",Sissepääs võimalik ratastooli ja lapsevankriga ,524-1081.jpg,Kolgaküla rahvamaja,"Kolgaküla, Kuusalu vald, Harju maakond","1081",tiia-liis.jyrgenson@kuusalu.ee,"+37258887098","+37258887098","2",false,2023/03/03,,
59.6081177259662,25.4967831283918,"{ ""2023-03-03"": [ ""12:00 - 20:00"" ] }","Ligipääs ühistranspordiga, oma autoga, ratastooliga ja lapsevankriga",524-1082.jpg,Leesi rahvamaja,"Leesi küla, Kuusalu vald, Harju maakond","1082",tiia-liis.jyrgenson@kuusalu.ee,"+37258887098","+37258887098","2",false,2023/03/03,,
59.4919748328216,25.6113006636409,"{ ""2023-03-04"": [ ""12:00 - 20:00"" ] }",Ratastooliga ligipääs puudub. Valimisjaoskond asub teisel korrusel ja sinna pääsemiseks on vajalik kasutada treppi.,524-1083.jpg,Kolga muuseum,"Kolga mõis, Kolga alevik, Kuusalu vald, Harju maakond","1083",tiia-liis.jyrgenson@kuusalu.ee,"+37258887098","+37258887098","2",false,2023/03/03,,
59.4284176199126,24.5458571768941,"{ ""2023-02-27 - 2023-03-04"": [ ""12:00 - 20:00"" ], ""2023-03-05"": [ ""09:00 - 20:00"" ] }","Pääseb ligi nii ühistranspordiga, ratastooliga ning on ka autode parkla.",526-1084.jpg,Harku Vallavalitsuse haridus- ja kultuuriosakonna ruumid,"Teenuste tn 2, Tabasalu alevik, Harku vald, Harju maakond","1084",valimiskomisjon1@harku.ee,"+37258887085","+37258887086","1",true,2023/03/03,,
59.4145712491261,24.6024324654855,"{ ""2023-03-03 - 2023-03-04"": [ ""12:00 - 20:00"" ], ""2023-03-05"": [ ""09:00 - 20:00"" ] }","Ligi pääseb ühistranspordiga, ratastooliga ning läheduses on ka autoparkla.",527-1087.jpg,Harkujärve Põhikool ,"J. Venteri tee 2a, Harkujärve küla, Harku vald, Harju maakond","1087",valimiskomisjon2@harku.ee,"+37258887086","+37258887086","2",false,2023/03/03,26.1636072065584,58.2999989835351
59.4566735150174,24.4409703958511,"{ ""2023-03-03 - 2023-03-04"": [ ""12:00 - 20:00"" ], ""2023-03-05"": [ ""09:00 - 20:00"" ] }","Ligi pääseb ühistranspordiga, ratastooliga ning läheduses on ka autoparkla.",528-1088.jpg,Muraste Kool ,"Lee tee 9, Muraste küla, Harku vald, Harju maakond","1088",valimiskomisjon3@harku.ee,"+37258887087","+37258887086","3",false,2023/03/03,26.1636072065584,58.2999989835351
59.004605,24.794541,"{ ""2023-02-27 - 2023-03-04"": [ ""12:00 - 20:00"" ], ""2023-03-05"": [ ""09:00 - 20:00"" ] }",ligipääs nii ühistranspordi kui ka ratastooliga,535-1121.jpg,Rapla Kultuurikeskus,"Tallinna mnt 17a, Rapla linn, Rapla vald, Rapla maakond","1121",vallasekretar@rapla.ee,"+37258887290","+37258887290","1",true,2023/03/03,,
58.973541,24.730103,"{ ""2023-03-03"": [ ""12:00 - 20:00"" ] }",ligipääs nii ühistranspordi kui ka ratastooliga,542-1123.jpg,Kuusiku päevakeskus,"Kuusiku mõisaallee 3, Kuusiku alevik, Rapla vald, Rapla maakond","1123",vallasekretar@rapla.ee,"+37258887291","+37258887291","2",false,2023/03/03,,
59.010882,24.795712,"{ ""2023-03-04"": [ ""12:00 - 20:00"" ], ""2023-03-05"": [ ""09:00 - 20:00"" ] }",ligipääs nii ühistranspordi kui ka ratastooliga,542-1124.jpg,Risti keskuse Prisma supermarket,"Risti tn 1, Uusküla, Rapla vald, Rapla maakond","1124",vallasekretar@rapla.ee,"+37258887291","+37258887291","2",false,2023/03/03,,
58.997988,24.813459,"{ ""2023-03-04"": [ ""12:00 - 20:00"" ], ""2023-03-05"": [ ""09:00 - 20:00"" ] }",ligipääs nii ühistranspordi kui ka ratastooliga,543-1126.jpg,Sadolin Spordihoone,"Viljandi mnt 69a, Rapla linn, Rapla vald, Rapla maakond","1126",vallasekretar@rapla.ee,"+37258887292","+37258887292","3",false,2023/03/03,,
59.064609,24.80849,"{ ""2023-03-03"": [ ""12:00 - 20:00"" ] }",ligipääs nii ühistranspordi kui ka ratastooliga,543-1127.jpg,Hagudi Põhikool,"Kooli tn 1, Hagudi alevik, Rapla vald, Rapla maakond","1127",vallasekretar@rapla.ee,"+37258887292","+37258887292","3",false,2023/03/03,,
59.025188,24.763669,"{ ""2023-03-04"": [ ""12:00 - 20:00"" ], ""2023-03-05"": [ ""09:00 - 20:00"" ] }",ligipääs nii ühistranspordi kui ka ratastooliga,544-1128.jpg,Rapla Keskraamatukogu Alu haruraamatukogu,"Keskuse tee 4, Alu alevik, Rapla vald, Rapla maakond","1128",vallasekretar@rapla.ee,"+37258887293","+37258887293","4",false,2023/03/03,,
59.03808,24.670932,"{ ""2023-03-03"": [ ""12:00 - 20:00"" ] }",ligipääs nii ühistranspordi kui ka ratastooliga,544-1130.jpg,Rapla Keskraamatukogu Kodila haruraamatukogu,"Kooli tn 5, Kodila küla, Rapla vald, Rapla maakond","1130",vallasekretar@rapla.ee,"+37258887293","+37258887293","4",false,2023/03/03,,
59.059529,24.959046,"{ ""2023-03-04"": [ ""12:00 - 20:00"" ], ""2023-03-05"": [ ""09:00 - 20:00"" ] }",ligipääs nii ühistranspordi kui ka ratastooliga,545-1131.jpg,Rapla Keskraamatukogu Juuru haruraamatukogu,"Tallinna mnt 18, Juuru alevik, Rapla vald, Rapla maakond","1131",vallasekretar@rapla.ee,"+37258887294","+37258887294","5",false,2023/03/03,,
59.136801,24.920857,"{ ""2023-03-03"": [ ""12:00 - 20:00"" ] }",ligipääs nii ühistranspordi kui ka ratastooliga,545-1133.jpg,Rapla Keskraamatukogu Järlepa haruraamatukogu,"Tammemäe tn 5, Järlepa küla, Rapla vald, Rapla maakond","1133",vallasekretar@rapla.ee,"+37258887294","+37258887294","5",false,2023/03/03,,
59.013867,25.055042,"{ ""2023-03-05"": [ ""09:00 - 20:00"" ] }",ligipääs nii ühistranspordi kui ka ratastooliga,546-1134.jpg,Kaiu rahvamaja,"Kasvandu tee 17, Kaiu alevik, Rapla vald, Rapla maakond","1134",vallasekretar@rapla.ee,"+37258887295","+37258887295","6",false,2023/03/03,,
59.043973,25.116336,"{ ""2023-03-04"": [ ""12:00 - 20:00"" ] }",ligipääs nii ühistranspordi kui ka ratastooliga,546-1135.jpg,Kuimetsa rahvamaja,"Pargi tee 1, Kuimetsa küla, Rapla vald, Rapla maakond","1135",vallasekretar@rapla.ee,"+37258887295","+37258887295","6",false,2023/03/03,,
58.949899,25.263619,"{ ""2023-03-03"": [ ""12:00 - 20:00"" ] }",ligipääs nii ühistranspordi kui ka ratastooliga,546-1136.jpg,Vahastu rahvamaja,"Vahastu rahvamaja, Vahastu küla, Rapla vald, Rapla maakond","1136",vallasekretar@rapla.ee,"+37258887295","+37258887295","6",false,2023/03/03,,
58.935495,24.753183,"{ ""2023-03-05"": [ ""09:00 - 20:00"" ] }",ligipääs nii ühistranspordi kui ka ratastooliga,547-1137.jpg,Raikküla kultuurikeskus,"Raikküla mõisaallee 9, Raikküla, Rapla vald, Rapla maakond","1137",vallasekretar@rapla.ee,"+37258887296","+37258887296","7",false,2023/03/03,,
58.884179,24.779819,"{ ""2023-03-03"": [ ""12:00 - 20:00"" ] }",ligipääs nii ühistranspordi kui ka ratastooliga,547-1138.jpg,Purku keskus,"Masinakeskuse, Purku küla, Rapla vald, Rapla maakond","1138",vallasekretar@rapla.ee,"+37258887296","+37258887296","7",false,2023/03/03,,
58.930446,24.650928,"{ ""2023-03-04"": [ ""12:00 - 20:00"" ] }",ligipääs nii ühistranspordi kui ka ratastooliga,547-1139.jpg,Rapla Vallavalitsuse Kabala teenuskeskus,"Koikse tee 7, Kabala küla, Rapla vald, Rapla maakond","1139",vallasekretar@rapla.ee,"+37258887296","+37258887296","7",false,2023/03/03,,
58.9980410865221,22.7452037347979,"{ ""2023-02-27 - 2023-03-04"": [ ""12:00 - 20:00"" ], ""2023-03-05"": [ ""09:00 - 20:00"" ] }",Tagatud ligipääs ühistranspordi kui ka ratastooliga.,548-1140.jpg,Kärdla Kultuurikeskus,"Rookopli tn 18, Kärdla linn, Hiiumaa vald, Hiiu maakond","1140",valimised@hiiumaa.ee,"+37258887126","+37258887126","1",true,2023/03/03,,
58.9811494205089,22.464868602373,"{ ""2023-03-03 - 2023-03-04"": [ ""12:00 - 20:00"" ], ""2023-03-05"": [ ""09:00 - 20:00"" ] }",Tagatud ligipääs ühistranspordi kui ka ratastooliga.,549-1142.jpg,Kõrgessaare Raamatukogu,"Tööstuse tee 16a, Kõrgessaare alevik, Hiiumaa vald, Hiiu maakond","1142",valimised@hiiumaa.ee,"+37258887127","+37258887127","2",false,2023/03/03,26.1636072065584,58.2999989835351
58.8270418508108,22.7744383106803,"{ ""2023-02-27 - 2023-03-04"": [ ""12:00 - 20:00"" ], ""2023-03-05"": [ ""09:00 - 20:00"" ] }",Tagatud ligipääs ühistranspordi kui ka ratastooliga.,550-1144.jpg,Käina Osavalla Valitsus,"Hiiu mnt 28, Käina alevik, Hiiumaa vald, Hiiu maakond","1144",valimised@hiiumaa.ee,"+37258887128","+37258887128","3",true,2023/03/03,,
58.964831348014,22.8443179296627,"{ ""2023-03-03 - 2023-03-04"": [ ""12:00 - 20:00"" ], ""2023-03-05"": [ ""09:00 - 20:00"" ] }",Tagatud ligipääs ühistranspordi kui ka ratastooliga.,551-1147.jpg,Palade Põhikool,"Palade kool, Palade küla, Hiiumaa vald, Hiiu maakond","1147",valimised@hiiumaa.ee,"+37258887129","+37258887129","4",false,2023/03/03,26.1636072065584,58.2999989835351
58.7055420976905,22.5967210206726,"{ ""2023-03-03 - 2023-03-04"": [ ""12:00 - 20:00"" ], ""2023-03-05"": [ ""09:00 - 20:00"" ] }",Tagatud ligipääs ühistranspordi kui ka ratastooliga.,552-1148.jpg,Emmaste Osavalla Valitsus,"Vallamaja, Emmaste küla, Hiiumaa vald, Hiiu maakond","1148",valimised@hiiumaa.ee,"+37258887130","+37258887130","5",true,2023/03/03,26.1636072065584,58.2999989835351
59.351931,26.365175,"{ ""2023-03-03 - 2023-03-04"": [ ""12:00 - 20:00"" ], ""2023-03-05"": [ ""09:00 - 20:00"" ] }",Pääseb ratastooliga,554-1150.jpg,Rakvere Rohuaia Lasteaed,"Posti tn 29, Rakvere linn, Lääne-Viru maakond","1150",tormis.otsma@rakvere.ee,"+37258887211","+37258887211","2",false,2023/03/03,26.1636072065584,58.2999989835351
58.405468,24.65164,"{ ""2023-02-27 - 2023-03-04"": [ ""12:00 - 20:00"" ], ""2023-03-05"": [ ""09:00 - 20:00"" ] }",Sissepääs võimalik ratastooli ja lapsevankriga.,555-1152.jpg,Sindi Sotsiaaltöökeskus,"Pärnu mnt 27a, Sindi linn, Tori vald, Pärnu maakond","1152",mitt.helga@gmail.com,"+37258887272","+37258887272","1",true,2023/03/03,,
58.4307436880842,24.5023872062297,"{ ""2023-03-03 - 2023-03-04"": [ ""12:00 - 20:00"" ], ""2023-03-05"": [ ""09:00 - 20:00"" ] }",Sissepääs võimalik ratastooli ja lapsevankriga.,556-1155.jpg,Sauga Teenuskeskus,"Selja tee 1a, Sauga alevik, Tori vald, Pärnu maakond","1155",janne.soosalu@torivald.ee,"+37258887273","+37258887273","2",false,2023/03/03,26.1636072065584,58.2999989835351
58.3931184459939,24.604983085941,"{ ""2023-03-03 - 2023-03-04"": [ ""12:00 - 20:00"" ], ""2023-03-05"": [ ""09:00 - 20:00"" ] }",Sissepääs võimalik ratastooli ja lapsevankriga.,557-1157.jpg,Tammiste Lasteaed,"Kellukese tee 5, Tammiste küla, Tori vald, Pärnu maakond","1157",margit82@hotmail.com,"+37258887274","+37258887274","3",false,2023/03/03,26.1636072065584,58.2999989835351
58.5187138289663,24.5654282413245,"{ ""2023-03-03"": [ ""12:00 - 20:00"" ], ""2023-03-05"": [ ""09:00 - 20:00"" ] }",Sissepääs võimalik ratastooli ja lapsevankriga.,558-1158.jpg,Are Teenuskeskus.,"Pärivere tee 17, Are alevik, Tori vald, Pärnu maakond","1158",terje.vosumets@torivald.ee,"+37258887275","+37258887275","4",false,2023/03/03,,
58.5276039963766,24.7031238554059,"{ ""2023-03-04"": [ ""12:00 - 20:00"" ] }",Sissepääs võimalik ratastooli ja lapsevankriga.,558-1160.jpg,Suigu Seltsimaja,"Tootsi tee 6, Suigu küla, Tori vald, Pärnu maakond","1160",terje.vosumets@torivald.ee,"+37258887275","+37258887275","4",false,2023/03/03,,
58.4856423890483,24.8143842278011,"{ ""2023-03-03 - 2023-03-04"": [ ""12:00 - 20:00"" ], ""2023-03-05"": [ ""09:00 - 20:00"" ] }",Sissepääs võimalik ratastooli ja lapsevankriga.,559-1162.jpg,Tori Teenuskeskus.,"Selja mnt 2, Tori alevik, Tori vald, Pärnu maakond","1162",silvi.pool@torivald.ee,"+37258887276","+37258887276","5",false,2023/03/03,26.1636072065584,58.2999989835351
59.4994094982893,24.8374599364457,"{ ""2023-02-27 - 2023-03-04"": [ ""12:00 - 20:00"" ], ""2023-03-05"": [ ""09:00 - 20:00"" ] }","Sissepääs võimalik ratastooli ja lapsevankriga. 
Sisenemine huvikeskusepoolsest uksest, edasi juhatavad viidad. ",561-1166.jpg,Viimsi Vallavalitsus,"Nelgi tee 1, Viimsi alevik, Viimsi vald, Harju maakond","1167",taavi.valgmae@viimsivv.ee,"+37258887122","+37258887122","1",true,2023/03/03,,
59.5057974907684,24.8280456034067,"{ ""2023-03-03 - 2023-03-04"": [ ""12:00 - 20:00"" ], ""2023-03-05"": [ ""09:00 - 20:00"" ] }",Sissepääs võimalik ratastooli ja lapsevankriga.,562-1168.jpg,Viimsi Raamatukogu,"Randvere tee 9, Haabneeme alevik, Viimsi vald, Harju maakond","1168",anneli.aasa@viimsivv.ee,"+37258887123","+37258887123","2",false,2023/03/03,26.1636072065584,58.2999989835351
59.5061774524368,24.9067981760576,"{ ""2023-03-03 - 2023-03-04"": [ ""12:00 - 20:00"" ], ""2023-03-05"": [ ""09:00 - 20:00"" ] }",Sissepääs võimalik ratastooli ja lapsevankriga.,563-1170.jpg, Randvere lasteaia/päevakeskuse maja,"Kibuvitsa tee 1, Randvere küla, Viimsi vald, Harju maakond","1170",tonu.troon@viimsivv.ee,"+37258887124","+37258887124","3",false,2023/03/03,26.1636072065584,58.2999989835351
59.6288532716207,25.0106891758815,"{ ""2023-03-03 - 2023-03-04"": [ ""12:00 - 20:00"" ], ""2023-03-05"": [ ""09:00 - 20:00"" ] }"," Ligipääs ratastooliga puudub. Palun helistage jaoskonna telefoninumbril, teid abistatakse. ",,Prangli Põhikool,"Prangli põhikool, Idaotsa küla, Viimsi vald, Harju maakond","1173",tiina@prangli.edu.ee,"+37258887125","+37258887125","4",false,2023/03/03,26.1636072065584,58.2999989835351
58.1266827302226,25.350067502483,"{ ""2023-02-27 - 2023-03-04"": [ ""12:00 - 20:00"" ], ""2023-03-05"": [ ""09:00 - 20:00"" ] }","Ligipääs ratastooliga, lapsevankriga",565-1174.jpg,Abja Kultuurimaja,"Pärnu mnt 28, Abja-Paluoja linn, Mulgi vald, Viljandi maakond","1174",raabusliisi@gmail.com,"+37258887367","+37258887367","1",true,2023/03/03,,
58.1669952729284,25.4438999093852,"{ ""2023-03-03 - 2023-03-04"": [ ""12:00 - 20:00"" ], ""2023-03-05"": [ ""09:00 - 20:00"" ] }","Ligipääs ratastooliga, lapsevankriga",566-1176.jpg,Halliste Rahvamaja,"Klubi tn 5, Halliste alevik, Mulgi vald, Viljandi maakond","1176",katrintukk@gmail.com,"+37258887368","+37258887368","2",false,2023/03/03,26.1636072065584,58.2999989835351
58.1059838318756,25.5464195509159,"{ ""2023-03-03 - 2023-03-04"": [ ""12:00 - 20:00"" ], ""2023-03-05"": [ ""09:00 - 20:00"" ] }","Ligipääs ratastooliga, lapsevankriga",567-1178.jpg,Karksi-Nuia Kultuurikeskus,"Viljandi mnt 1, Karksi-Nuia linn, Mulgi vald, Viljandi maakond","1178",elerin.oovel@gmail.com,"+37258887369","+37258887369","3",false,2023/03/03,26.1636072065584,58.2999989835351
58.0924184424168,25.1863911751256,"{ ""2023-03-03 - 2023-03-04"": [ ""12:00 - 20:00"" ], ""2023-03-05"": [ ""09:00 - 20:00"" ] }","Ligipääs ratastooliga, lapsevankriga",568-1180.jpg,Mõisaküla linnavalitsuse hoone,"Kesk tn 4, Mõisaküla linn, Mulgi vald, Viljandi maakond","1180",silvia.kuusk@gmail.com,"+37258887370","+37258887370","4",false,2023/03/03,26.1636072065584,58.2999989835351
57.8454505494771,26.9965943632648,"{ ""2023-03-03 - 2023-03-04"": [ ""12:00 - 20:00"" ], ""2023-03-05"": [ ""09:00 - 20:00"" ] }",Asub esimesel korrusel. Sissepääs võimalik ratastooli ja lapsevankriga.,569-1182.jpg,Võru Kesklinna Koolis,"Vabaduse tn 12, Võru linn, Võru maakond","1182",kaare.lill@voru.ee,"+37258887396","+37258887396","1",false,2023/03/03,26.1636072065584,58.2999989835351
57.8434269017592,27.0000483007571,"{ ""2023-02-27 - 2023-03-04"": [ ""12:00 - 20:00"" ], ""2023-03-05"": [ ""09:00 - 20:00"" ] }",Asub esimesel korrusel. Sissepääs võimalik ratastooli ja lapsevankriga.,570-1184.jpg,Kultuurimaja Kannel,"Liiva tn 13, Võru linn, Võru maakond","1184",sirje.peris@voru.ee,"+37258887397","+37258887397","2",true,2023/03/03,,
57.8471068138206,27.0089030155328,"{ ""2023-03-03 - 2023-03-04"": [ ""12:00 - 20:00"" ], ""2023-03-05"": [ ""09:00 - 20:00"" ] }","Valimisjaoskond asub esimesel korrusel, vajadusel abistavad jaoskonnakomisjoni liikmed.",571-1186.jpg,Võru Kreutzwaldi Kool,"Kooli tn 7, Võru linn, Võru maakond","1186",aivar.halapuu@vkrk.edu.ee,"+37258887398","+37258887398","3",false,2023/03/03,26.1636072065584,58.2999989835351
57.8381338273867,27.0124280959849,"{ ""2023-03-03 - 2023-03-04"": [ ""12:00 - 20:00"" ], ""2023-03-05"": [ ""09:00 - 20:00"" ] }",Asub esimesel korrusel. Sissepääs võimalik ratastooli ja lapsevankriga.,572-1188.jpg,Võru Lasteaed Sõleke,"Olevi tn 29, Võru linn, Võru maakond","1188",kristjurask@gmail.com,"+37258887399","+37258887399","4",false,2023/03/03,26.1636072065584,58.2999989835351
58.2529443378337,22.4869835023732,"{ ""2023-02-27 - 2023-03-04"": [ ""12:00 - 20:00"" ], ""2023-03-05"": [ ""09:00 - 20:00"" ] }",Ligipääsetav ratastooliga ja ühistranspordiga,575-1190.jpg,Kuressaare Kultuurikeskus,"Tallinna tn 6, Kuressaare linn, Saaremaa vald, Saare maakond","1190",mati.talvistu@kuressaare.ee,"+37258887299","+3724525000","1",true,2023/03/03,,
58.2655648093028,22.5161821483585,"{ ""2023-03-03 - 2023-03-04"": [ ""12:00 - 20:00"" ], ""2023-03-05"": [ ""09:00 - 20:00"" ] }",Ligipääsetav ratastooliga ja ühistranspordiga,576-1192.jpg,Auriga keskus,"Tallinna tn 88, Kudjape alevik, Saaremaa vald, Saare maakond","1192",merili.pahapill@saaremaavald.ee,"+37258887300","+3724525000","2",false,2023/03/03,26.1636072065584,58.2999989835351
58.258618302466,22.486825834282,"{ ""2023-03-03 - 2023-03-04"": [ ""12:00 - 20:00"" ], ""2023-03-05"": [ ""09:00 - 20:00"" ] }",Ligipääsetav ratastooliga ja ühistranspordiga,577-1194.jpg,Kuressaare Spordikeskus,"Vallimaa tn 16a, Kuressaare linn, Saaremaa vald, Saare maakond","1194",piiapulk@gmail.com,"+37258887301","+3724525000","3",false,2023/03/03,26.1636072065584,58.2999989835351
58.3597655448185,22.0392692511543,"{ ""2023-03-03 - 2023-03-04"": [ ""12:00 - 20:00"" ], ""2023-03-05"": [ ""09:00 - 20:00"" ] }",Ligipääsetav ratastooliga ja ühistranspordiga,578-1197.jpg,Kihelkonna Rahvamaja,"Lümanda mnt 1, Kihelkonna alevik, Saaremaa vald, Saare maakond","1197",eveli.ait@saaremaavald.ee,"+37258887302","+3724525000","4",false,2023/03/03,26.1636072065584,58.2999989835351
58.2856062934368,22.0252227198542,"{ ""2023-03-03 - 2023-03-04"": [ ""12:00 - 20:00"" ], ""2023-03-05"": [ ""09:00 - 20:00"" ] }",Ligipääsetav ratastooliga ja ühistranspordiga,579-1198.jpg,Lümanda Maja,"Keskusehoone, Lümanda küla, Saaremaa vald, Saare maakond","1198",ilmar.antov@saare.ee,"+37258887303","+3724525000","5",false,2023/03/03,26.1636072065584,58.2999989835351
58.461446305375,22.2343361216318,"{ ""2023-03-03 - 2023-03-04"": [ ""12:00 - 20:00"" ], ""2023-03-05"": [ ""09:00 - 20:00"" ] }",Ligipääsetav ratastooliga ja ühistranspordiga,580-1200.jpg,Mustjala Rahvamaja,"Alevi tn 9, Mustjala küla, Saaremaa vald, Saare maakond","1200",mustjala.rahvamaja@saarekultuur.ee,"+37258887304","+3724525000","6",false,2023/03/03,26.1636072065584,58.2999989835351
58.4260525904121,23.0001243435734,"{ ""2023-03-03 - 2023-03-04"": [ ""12:00 - 20:00"" ], ""2023-03-05"": [ ""09:00 - 20:00"" ] }",Ligipääsetav ratastooliga ja ühistranspordiga,581-1202.jpg,Laimjala teenuskeskus,"Vallamaja, Laimjala küla, Saaremaa vald, Saare maakond","1202",aive0303@gmail.com,"+37258887305","+3724525000","7",false,2023/03/03,26.1636072065584,58.2999989835351
58.559235771205,23.0833550676666,"{ ""2023-03-03 - 2023-03-04"": [ ""12:00 - 20:00"" ], ""2023-03-05"": [ ""09:00 - 20:00"" ] }",Ligipääsetav ratastooliga ja ühistranspordiga,582-1204.jpg,Orissaare teenuskeskus,"Kuivastu mnt 33, Orissaare alevik, Saaremaa vald, Saare maakond","1204",anne.saar@saaremaavald.ee,"+37258887306","+3724525000","8",false,2023/03/03,26.1636072065584,58.2999989835351
58.5035705911425,23.1147785963252,"{ ""2023-03-03 - 2023-03-04"": [ ""12:00 - 20:00"" ], ""2023-03-05"": [ ""09:00 - 20:00"" ] }",Ligipääsetav ratastooliga ja ühistranspordiga,583-1206.jpg,Tornimäe Rahvamaja,"Rahvamaja, Tornimäe küla, Saaremaa vald, Saare maakond","1206",parje.raev.001@mail.ee,"+37258887307","+3724525000","9",false,2023/03/03,26.1636072065584,58.2999989835351
58.5039805825991,22.7473376487561,"{ ""2023-03-04"": [ ""12:00 - 20:00"" ] }",Ligipääsetav ratastooliga ja ühistranspordiga,584-1209.jpg,Pärsama Rahvamaja,"Rahvamaja, Pärsama küla, Saaremaa vald, Saare maakond","1209",hannareinol@hotmail.com,"+37258887308","+3724525000","10",false,2023/03/03,,
58.5637454947568,22.6884008805597,"{ ""2023-03-03"": [ ""12:00 - 20:00"" ], ""2023-03-05"": [ ""09:00 - 20:00"" ] }",Ligipääsetav ratastooliga ja ühistranspordiga,584-1210.jpg,Leisi teenuskeskus,"Kooli tn 12, Leisi alevik, Saaremaa vald, Saare maakond","1210",hannareinol@hotmail.com,"+37258887308","+3724525000","10",false,2023/03/03,,
58.3463473675751,22.4446956662986,"{ ""2023-03-03 - 2023-03-04"": [ ""12:00 - 20:00"" ], ""2023-03-05"": [ ""09:00 - 20:00"" ] }",Ligipääsetav ratastooliga ja ühistranspordiga,585-1212.jpg,Aste Rahvamaja,"Soo tn 4, Aste alevik, Saaremaa vald, Saare maakond","1212",aste.rahvamaja@saare.ee,"+37258887309","+3724525000","11",false,2023/03/03,26.1636072065584,58.2999989835351
58.22827143834,22.3838639477548,"{ ""2023-03-04"": [ ""12:00 - 20:00"" ] }",Ligipääsetav ratastooliga ja ühistranspordiga,586-1214.jpg,"Rahvamaja ""Nasva klubi""","Sõrve mnt 53, Nasva alevik, Saaremaa vald, Saare maakond","1214",eve.kiil@saaremaavald.ee,"+37258887310","+3724525000","12",false,2023/03/03,,
58.1634855330952,22.252018541286,"{ ""2023-03-03"": [ ""12:00 - 20:00"" ], ""2023-03-05"": [ ""09:00 - 20:00"" ] }",Ligipääsetav ratastooliga ja ühistranspordiga,586-1215.jpg,Salme Rahvamaja,"Sõrve mnt 5, Salme alevik, Saaremaa vald, Saare maakond","1215",eve.kiil@saaremaavald.ee,"+37258887310","+3724525000","12",false,2023/03/03,,
57.977435813694,22.0785547302781,"{ ""2023-03-03 - 2023-03-04"": [ ""12:00 - 20:00"" ], ""2023-03-05"": [ ""09:00 - 20:00"" ] }",Ligipääsetav ratastooliga ja ühistranspordiga,587-1216.jpg,Torgu teenuskeskus,"Koolimaja, Iide küla, Saaremaa vald, Saare maakond","1216",kaire.muur@saaremaavald.ee,"+37258887311","+3724525000","13",false,2023/03/03,26.1636072065584,58.2999989835351
58.3308678466066,22.2581186153513,"{ ""2023-03-03 - 2023-03-04"": [ ""12:00 - 20:00"" ], ""2023-03-05"": [ ""09:00 - 20:00"" ] }",Ligipääsetav ratastooliga ja ühistranspordiga,588-1218.jpg,Kärla Rahvamaja,"Jõe tn 2, Kärla alevik, Saaremaa vald, Saare maakond","1218",triin.aksalu@saaremaavald.ee,"+37258887312","+3724525000","14",false,2023/03/03,26.1636072065584,58.2999989835351
58.3705048778922,22.6876629039395,"{ ""2023-03-04"": [ ""12:00 - 20:00"" ] }",Ligipääsetav ratastooliga ja ühistranspordiga,589-1221.jpg,Kõljala Seltsimaja,"Lasteaia, Kõljala küla, Saaremaa vald, Saare maakond","1221",piretmagi788@gmail.com,"+37258887313","+3724525000","15",false,2023/03/03,,
58.3015328899058,22.70832583311,"{ ""2023-03-03"": [ ""12:00 - 20:00"" ], ""2023-03-05"": [ ""09:00 - 20:00"" ] }",Ligipääsetav ratastooliga ja ühistranspordiga,589-1222.jpg,Pihtla teenuskeskus,"Vallamaja, Pihtla küla, Saaremaa vald, Saare maakond","1222",piretmagi788@gmail.com,"+37258887313","+3724525000","15",false,2023/03/03,,
58.4089515776747,22.7898509816725,"{ ""2023-03-03 - 2023-03-04"": [ ""12:00 - 20:00"" ], ""2023-03-05"": [ ""09:00 - 20:00"" ] }",Ligipääsetav ratastooliga ja ühistranspordiga,590-1223.jpg,Valjala teenuskeskus,"Posti tn 15, Valjala alevik, Saaremaa vald, Saare maakond","1223",angela0000@hot.ee,"+37258887314","+3724525000","16",false,2023/03/03,26.1636072065584,58.2999989835351
58.3158696626919,26.8380859811193,"{ ""2023-02-27 - 2023-03-04"": [ ""12:00 - 20:00"" ], ""2023-03-05"": [ ""09:00 - 20:00"" ] }",Juurdepääsetavus tagatud nii ühistranspordi kui ratastooliga liikuvale valijale.,591-1225.jpg,Priiuse seltsimaja,"Priiuse seltsimaja, Kurepalu küla, Kastre vald, Tartu maakond","1225",valimiskomisjon@kastre.ee,"+37258887323","+37258887323","1",true,2023/03/03,,
58.3322459549025,26.9816314222069,"{ ""2023-03-03 - 2023-03-04"": [ ""12:00 - 20:00"" ], ""2023-03-05"": [ ""09:00 - 20:00"" ] }",Juurdepääsetavus tagatud nii ühistranspordi kui ratastooliga liikuvale valijale.,592-1227.jpg,Melliste Kool,"Aabitsa tee 1a, Melliste küla, Kastre vald, Tartu maakond","1227",valimiskomisjon@kastre.ee,"+37258887324","+37258887324","2",false,2023/03/03,26.1636072065584,58.2999989835351
58.2836960854541,27.0472892475369,"{ ""2023-03-03 - 2023-03-04"": [ ""12:00 - 20:00"" ], ""2023-03-05"": [ ""09:00 - 20:00"" ] }",Juurdepääsetavus tagatud nii ühistranspordi kui ratastooliga liikuvale valijale.,593-1229.jpg,Võnnu Kultuurimaja,"Tartu tn 24, Võnnu alevik, Kastre vald, Tartu maakond","1229",valimiskomisjon@kastre.ee,"+37258887325","+37258887325","3",false,2023/03/03,26.1636072065584,58.2999989835351
59.034996,27.084519,"{ ""2023-03-04"": [ ""12:00 - 20:00"" ] }",Ligipääsetavus on olemas - Hoonesse sisenemiseks lapsevankriga või abivahendiga on võimaldatud.,594-1232.jpg,Tudulinna kogukonnamaja,"Kooli tn 4, Tudulinna küla, Alutaguse vald, Ida-Viru maakond","1232",ave.lohu@alutagusevald.ee,"+37258887131","+37258887131","1",true,2023/03/03,,
59.012091,27.423943,"{ ""2023-03-03"": [ ""12:00 - 20:00"" ] }",Ligipääsetavus tagatud komisjoni liikmete abil.,594-1233.jpg,Alajõe raamatukogu,"Valla tn 8, Alajõe küla, Alutaguse vald, Ida-Viru maakond","1233",ave.lohu@alutagusevald.ee,"+37258887131","+37258887131","1",true,2023/03/03,,
59.270999,27.511439,"{ ""2023-03-03"": [ ""12:00 - 20:00"" ], ""2023-03-05"": [ ""09:00 - 20:00"" ] }",Ligipääsetavus tagatud ratastooli ja lapsevankriga valijale,595-1234.jpg,Kurtna noortekeskus,"Noortekeskuse, Kurtna küla, Alutaguse vald, Ida-Viru maakond","1234",tairi.hytt@alutagusevald.ee,"+37258887132","+37258887132","2",false,2023/03/03,,
59.201995,27.533237,"{ ""2023-03-04"": [ ""12:00 - 20:00"" ] }",Ligipääs tagatud komisjoniliikmete abiga,595-1235.jpg,Kuremäe raamatukogu,"Raamatukogu, Kuremäe küla, Alutaguse vald, Ida-Viru maakond","1235",tairi.hytt@alutagusevald.ee,"+37258887132","+37258887132","2",false,2023/03/03,,
59.22443,27.290848,"{ ""2023-03-03"": [ ""12:00 - 20:00"" ], ""2023-03-04"": [ ""12:00 - 20:00"" ], ""2023-03-05"": [ ""09:00 - 20:00"" ] }",Ligipääs on tagatud ratastooli ja lapsevankriga valijale,596-1237.jpg,Mäetaguse mõisahotelli aida hoones,"Pargi tn 3/1, Mäetaguse alevik, Alutaguse vald, Ida-Viru maakond","1237",kalle.raidma@alutagusevald.ee,"+37258887133","+37258887133","3",false,2023/03/03,,
59.3419064916438,26.131329660417,"{ ""2023-02-27 - 2023-03-04"": [ ""12:00 - 20:00"" ], ""2023-03-05"": [ ""09:00 - 20:00"" ] }","Ligipääsetav ratastooli ja lapsevankriga.
Teid abistab jaoskonnakomisjon.",599-1244.jpg,Kadrina Kultuurikoja Kadrina rahvamaja,"Viru tn 14, Kadrina alevik, Kadrina vald, Lääne-Viru maakond","1244",Jaan.Rummi@kadrina.ee,"+37258887208","+37258887208","1",true,2023/03/03,,
59.3533726003652,26.2241012495629,"{ ""2023-03-03 - 2023-03-04"": [ ""12:00 - 20:00"" ], ""2023-03-05"": [ ""09:00 - 20:00"" ] }",Ligipääsetav ratastooli ja lapsevankriga,600-1246.jpg,Hulja lasteaias asuvad raamatukogu ruumid,"Tõnismäe tee 18, Hulja alevik, Kadrina vald, Lääne-Viru maakond","1246",Gerda.Ansi@kadrina.ee,"+37258887209","+37258887209","2",false,2023/03/03,26.1636072065584,58.2999989835351
59.096732,27.313426,"{ ""2023-02-27"": [ ""12:00 - 20:00"" ], ""2023-02-28"": [ ""12:00 - 20:00"" ], ""2023-03-01"": [ ""12:00 - 20:00"" ], ""2023-03-02"": [ ""12:00 - 20:00"" ], ""2023-03-03"": [ ""12:00 - 20:00"" ], ""2023-03-04"": [ ""12:00 - 20:00"" ], ""2023-03-05"": [ ""09:00 - 20:00"" ] }",Ligipääsetavus on olemas - Hoonesse sisenemiseks lapsevankriga või abivahendiga on olemas kaldtee.,594-1252.jpg,Iisaku Kihelkonna Muuseum,"Tartu mnt 49, Iisaku alevik, Alutaguse vald, Ida-Viru maakond","1252",ave.lohu@alutagusevald.ee,"+37258887131","+37258887131","1",true,2023/03/03,,
59.183735,25.161265,"{ ""2023-02-27 - 2023-03-04"": [ ""12:00 - 20:00"" ], ""2023-03-05"": [ ""09:00 - 20:00"" ] }","Hääletamisruum asub teisel korrusel, hoones asub lift. Hoone juures on olemas parkimisvõimalused.",601-1254.jpg,Kose Kultuurikeskus,"Hariduse tn 2, Kose alevik, Kose vald, Harju maakond","1254",marit.laurimaa@gmail.com,"+37258887093",,"1",true,2023/03/03,,
59.20365,25.103155,"{ ""2023-03-03 - 2023-03-04"": [ ""12:00 - 20:00"" ], ""2023-03-05"": [ ""09:00 - 20:00"" ] }",Hääletamisruum asub esimesel korrusel. Hoone juures on olemas parkimisvõimalused.,602-1255.jpg,Kose-Uuemõisa raamatukogu,"Tiigi tn 1, Kose-Uuemõisa alevik, Kose vald, Harju maakond","1255",kristel.kadapik@kosevald.ee,"+37258887094",,"2",false,2023/03/03,26.1636072065584,58.2999989835351
59.189742,24.988764,"{ ""2023-03-03 - 2023-03-04"": [ ""12:00 - 20:00"" ], ""2023-03-05"": [ ""09:00 - 20:00"" ] }",Hääletamisruum asub esimesel korrusel. Hoone juures on olemas parkimisvõimalused. Olemas kaldtee.,603-1256.jpg,Oru külakeskus,"Keskuse tee 6, Oru küla, Kose vald, Harju maakond","1256",aunaive1@gmail.com,"+37258887095",,"3",false,2023/03/03,26.1636072065584,58.2999989835351
59.099961,25.358703,"{ ""2023-03-03 - 2023-03-04"": [ ""12:00 - 20:00"" ], ""2023-03-05"": [ ""09:00 - 20:00"" ] }",Hääletamisruum asub esimesel korrusel. Hoone juures on olemas parkimisvõimalused. Olemas kaldtee.,604-1257.jpg,endine Kõue Vallavalitsuse hoone,"Kesk tee 6, Ardu alevik, Kose vald, Harju maakond","1257",margit.eerik@kosevald.ee,"+37258887096",,"4",false,2023/03/03,26.1636072065584,58.2999989835351
57.9579758464819,27.6337772465741,"{ ""2023-02-27 - 2023-03-04"": [ ""12:00 - 20:00"" ], ""2023-03-05"": [ ""09:00 - 20:00"" ] }",Ligipääsetavus ratastooliga,,Värska Kultuurimaja,"Pikk tn 12, Värska alevik, Setomaa vald, Võru maakond","1262",vald@setomaa.ee,"+37258887393","+37258887393","1",true,2023/03/03,,
57.8842621111417,27.7922238565036,"{ ""2023-03-03"": [ ""12:00 - 20:00"" ] }",Ligipääsetavus ratastooliga,,Saatse Raamatukogu,"Saatse kool, Saatse küla, Setomaa vald, Võru maakond","1263",vald@setomaa.ee,"+37258887393","+37258887393","1",true,2023/03/03,,
58.0588089090704,27.5906403364337,"{ ""2023-03-03"": [ ""12:00 - 20:00"" ] }",Ligipääsetavus ratastooliga,,Lüübnitsa Külakeskus,"Uus tn 2, Lüübnitsa küla, Setomaa vald, Võru maakond","1265",vald@setomaa.ee,"+37258887394","+37258887394","2",false,2023/03/03,,
58.0036165731506,27.5423892846625,"{ ""2023-03-04"": [ ""12:00 - 20:00"" ], ""2023-03-05"": [ ""09:00 - 20:00"" ] }",Ligipääsetavus ratastooliga,,Endine Tooma pood,"Mäe tn 20, Mikitamäe küla, Setomaa vald, Võru maakond","1266",vald@setomaa.ee,"+37258887394","+37258887394","2",false,2023/03/03,,
57.8118310464039,27.4457737567286,"{ ""2023-03-04"": [ ""12:00 - 20:00"" ] }",Ligipääsetavus ratastooliga,,Obinitsa Külakeskus,"Kooli tn 1, Obinitsa küla, Setomaa vald, Võru maakond","1269",vald@setomaa.ee,"+37258887395","+37258887395","3",false,2023/03/03,,
57.7479573257783,27.4564963729922,"{ ""2023-03-04"": [ ""12:00 - 20:00"" ], ""2023-03-05"": [ ""09:00 - 20:00"" ] }",Ligipääsetavus ratastooliga,,Meremäe Teeninduspunkt,"Petseri tee 15, Meremäe küla, Setomaa vald, Võru maakond","1271",vald@setomaa.ee,"+37258887395","+37258887395","3",false,2023/03/03,,
57.639751,27.354915,"{ ""2023-03-03"": [ ""12:00 - 20:00"" ] }",Ratastooliga ligipääsetav,,Luhamaa Külakeskus,"Luhamaa külaplats, Määsi küla, Setomaa vald, Võru maakond","1272",vald@setomaa.ee,"+37258887395","+37258887395","3",false,2023/03/03,,
58.223604,26.416591,"{ ""2023-02-27 - 2023-03-04"": [ ""12:00 - 20:00"" ], ""2023-03-05"": [ ""09:00 - 20:00"" ] }",Ligipääs nii ratastooli kui ka lapsekäruga.,616-1285.jpg,Elva Kultuurikeskus,"Kesk tn 30, Elva linn, Elva vald, Tartu maakond","1285",kristi.kalmus@elva.ee,"+37258887315","+37258887315","1",true,2023/03/03,,
58.336069,26.308973,"{ ""2023-03-03 - 2023-03-04"": [ ""12:00 - 20:00"" ], ""2023-03-05"": [ ""09:00 - 20:00"" ] }",Ligipääs nii ratastooli kui ka lapsevankriga.,617-1288.jpg,Puhja Noortekeskus,"Viljandi tee 28/2, Puhja alevik, Elva vald, Tartu maakond","1288",hille.deede@elva.ee,"+37258887316","+37258887316","2",false,2023/03/03,26.1636072065584,58.2999989835351
58.239627,26.214603,"{ ""2023-03-03 - 2023-03-04"": [ ""12:00 - 20:00"" ], ""2023-03-05"": [ ""09:00 - 20:00"" ] }",Ligipääs nii ratastooli kui ka lapsevankriga.,618-1289.jpg,Rannu Päevakeskus,"Elva tee 3, Rannu alevik, Elva vald, Tartu maakond","1289",kaisa.kangro@elva.ee,"+37258887317","+37258887317","3",false,2023/03/03,26.1636072065584,58.2999989835351
58.139204,26.247689,"{ ""2023-03-03 - 2023-03-04"": [ ""12:00 - 20:00"" ], ""2023-03-05"": [ ""09:00 - 20:00"" ] }",Ligipääs nii ratastooli kui ka lapsevankriga.,619-1291.jpg,Rõngu Rahvamaja,"Valga mnt 12, Rõngu alevik, Elva vald, Tartu maakond","1291",ene.joosing@elva.ee,"+37258887318","+37258887318","4",false,2023/03/03,26.1636072065584,58.2999989835351
58.149572,24.964294,"{ ""2023-02-27 - 2023-03-04"": [ ""12:00 - 20:00"" ], ""2023-03-05"": [ ""09:00 - 20:00"" ] }",Ligipääs ratastooliga.,620-1293.jpg,Kilingi-Nõmme Klubi,"Pärnu tn 73, Kilingi-Nõmme linn, Saarde vald, Pärnu maakond","1293",info@saarde.ee,"+37258887270","+37258887270","1",true,2023/03/03,,
58.237483,24.707062,"{ ""2023-03-03 - 2023-03-04"": [ ""12:00 - 20:00"" ], ""2023-03-05"": [ ""09:00 - 20:00"" ] }",Ratastooliga valijat abistatakse.,621-1294.jpg,Surju Rahvamaja,"Sireli, Surju küla, Saarde vald, Pärnu maakond","1294",info@saarde.ee,"+37258887271","+37258887271","2",true,2023/03/03,26.1636072065584,58.2999989835351
57.8321002983044,26.5291605301985,"{ ""2023-02-27 - 2023-03-04"": [ ""12:00 - 20:00"" ], ""2023-03-05"": [ ""09:00 - 20:00"" ] }",ratastoolis või muude abivahenditega,624-1296.jpg,Antsla Kultuuri-ja Spordikeskus,"Kooli tee 19, Antsla linn, Antsla vald, Võru maakond","1296",liana@antsla.ee,"+37258887387","+37258887387","1",true,2023/03/03,,
59.581361,25.722015,"{ ""2023-02-27 - 2023-03-04"": [ ""12:00 - 20:00"" ], ""2023-03-05"": [ ""09:00 - 20:00"" ] }",Ligipääs nii ratastooli kui ka lapsekäruga.,622-1302.jpg,Loksa Linnavalitsus,"Tallinna tn 45, Loksa linn, Harju maakond","1302",karin.kask@loksa.ee,"+37258887099","+37258887099","1",true,2023/03/03,,
59.370607,25.184245,"{ ""2023-03-03 - 2023-03-04"": [ ""12:00 - 20:00"" ], ""2023-03-05"": [ ""09:00 - 20:00"" ] }",Ligipääsetav nii autoga kui jalgsi. Tasuta parkimine,627-1303.jpg,Raasiku Rahvamaja,"Tallinna mnt 21, Raasiku alevik, Raasiku vald, Harju maakond","1303",urvejo@gmail.com,"+37258887108","+37258887108","1",false,2023/03/03,26.1636072065584,58.2999989835351
59.365629,25.080567,"{ ""2023-02-27 - 2023-03-04"": [ ""12:00 - 20:00"" ], ""2023-03-05"": [ ""09:00 - 20:00"" ] }",Juurdepääs nii jalgsi kui autoga. Tasuta parkimine,628-1305.jpg,Raasiku vallamaja,"Tallinna mnt 24, Aruküla alevik, Raasiku vald, Harju maakond","1305",karin.mollits@raasiku.ee,"+37258887109","+37258887109","2",true,2023/03/03,,
58.1324144359114,23.9822619782645,"{ ""2023-02-27 - 2023-03-04"": [ ""12:00 - 20:00"" ], ""2023-03-05"": [ ""09:00 - 20:00"" ] }",Ratastooliga ligipääsetavus tagatud,630-1308.jpg,Kihnu rahvamaja,"Kooli/1, Linaküla, Kihnu vald, Pärnu maakond","1308",valimised@kihnu.ee,"+37258887247","+37258887247","1",true,2023/03/03,,
59.436089,24.947093,"{ ""2023-03-05"": [ ""09:00 - 20:00"" ] }",Ühistranspordi ja ratastooliga ligipääs tagatud,632-1309.jpg,Loo Keskkool,"Saha tee 7, Loo alevik, Jõelähtme vald, Harju maakond","1309",gerli.kelk@joelahtme.ee,"+37258887088","+37258887089","1",false,2023/03/03,,
59.4360891127678,24.9470931126826,"{ ""2023-03-03 - 2023-03-04"": [ ""12:00 - 20:00"" ] }",Ühistranspordi ja ratastooliga juurdepääs tagatud,632-1310.jpg,Loo Keskkool,"Saha tee 7, Loo alevik, Jõelähtme vald, Harju maakond","1310",gerli.kelk@joelahtme.ee,"+37258887088","+37258887089","1",false,2023/03/03,,
59.4269549052432,25.0957562284042,"{ ""2023-02-27 - 2023-03-04"": [ ""12:00 - 20:00"" ], ""2023-03-05"": [ ""09:00 - 20:00"" ] }",Ligipääsetavus ühistranspordi ja ratastooliga tagatud,633-1311.jpg,Kostivere Kultuurimõis,"Mõisa tee 2, Kostivere alevik, Jõelähtme vald, Harju maakond","1311",kalev.algo@joelahtme.ee,"+37258887089","+37258887089","2",true,2023/03/03,,
59.4506735910711,26.8614946707735,"{ ""2023-03-03 - 2023-03-04"": [ ""12:00 - 20:00"" ], ""2023-03-05"": [ ""09:00 - 20:00"" ] }",Ligipääs ratastooli ja lapsevankriga tagatud,634-1314.jpg,Aseri Vabaajakeskus,"Kesktänav 22, Aseri alevik, Viru-Nigula vald, Lääne-Viru maakond","1314",vallavalitsus@viru-nigula.ee,"+37258887224","+37253341270","1",false,2023/03/03,26.1636072065584,58.2999989835351
59.4996720470393,26.5129039803165,"{ ""2023-02-27 - 2023-03-04"": [ ""12:00 - 20:00"" ], ""2023-03-05"": [ ""09:00 - 20:00"" ] }",Ligipääs tagatud ratastooli ja lapsevankriga.,635-1315.jpg,Kunda Spordikeskus,"Kasemäe tn 19, Kunda linn, Viru-Nigula vald, Lääne-Viru maakond","1315",vallavalitsus@viru-nigula.ee,"+37258887225","+37253341270","2",true,2023/03/03,,
59.4465814448003,26.6882225289918,"{ ""2023-03-03 - 2023-03-04"": [ ""12:00 - 20:00"" ], ""2023-03-05"": [ ""09:00 - 20:00"" ] }",Ligipääs ratastooli ja lapsevankriga tagatud,636-1318.jpg,Viru-Nigula Rahvamaja,"Kunda tee 8, Viru-Nigula alevik, Viru-Nigula vald, Lääne-Viru maakond","1318",vallavalitsus@viru-nigula.ee,"+37258887226","+37253341270","3",false,2023/03/03,26.1636072065584,58.2999989835351
57.8626012831159,27.180214289637,"{ ""2023-03-03 - 2023-03-04"": [ ""12:00 - 20:00"" ], ""2023-03-05"": [ ""09:00 - 20:00"" ] }",Ratastooliga ja lapsevankriga ligipääsetavus olemas. Suur parkla asub sissepääsu juures. Ühistranspordi peatus ca 220 m kaugusel.,640-1320.jpg,Lasva Rahvamaja,"Palo tee 46, Lasva küla, Võru vald, Võru maakond","1320",siiri@lasva.ee,"+37258887400","+37257875848","1",false,2023/03/03,26.1636072065584,58.2999989835351
57.8887262876688,27.4571811943879,"{ ""2023-03-03 - 2023-03-04"": [ ""12:00 - 20:00"" ], ""2023-03-05"": [ ""09:00 - 20:00"" ] }",Ratastooliga ja lapsevankriga ligipääsetavus olemas. Parkla asub sissepääsu juures. Ühistranspordi peatus läheduses (ca 100 m).,641-1323.jpg,Orava Kultuurimaja,"Pargi tee 2, Orava küla, Võru vald, Võru maakond","1323",aivi.jaager@gmail.com,"+37258887401","+37257875848","2",false,2023/03/03,26.1636072065584,58.2999989835351
57.884384434921,26.8264151698179,"{ ""2023-03-04"": [ ""12:00 - 20:00"" ], ""2023-03-05"": [ ""09:00 - 20:00"" ] }",Ratastooliga ja lapsevankriga ligipääsetavus olemas. Suur parkla asub sissepääsu juures. Ühistranspordi peatus läheduses (ca 50 m).,642-1324.jpg,Osula Põhikool,"Osula kool, Osula küla, Võru vald, Võru maakond","1324",maarika.rosenberg@voruvald.ee,"+37258887402","+37257875848","3",false,2023/03/03,,
57.8525581351426,26.8354447709414,"{ ""2023-03-03"": [ ""12:00 - 20:00"" ] }",Ratastooliga ja lapsevankriga ligipääsetavus olemas. Suur parkla asub sissepääsu läheduses. Ühistranspordi peatus läheduses (ca 250 m).,642-1326.jpg,Sõmerpalu Teenuskeskus,"Kooli tn 1, Sõmerpalu alevik, Võru vald, Võru maakond","1326",maarika.rosenberg@voruvald.ee,"+37258887402","+37257875848","3",false,2023/03/03,,
57.7311504460538,27.2835264025707,"{ ""2023-02-27 - 2023-03-04"": [ ""12:00 - 20:00"" ], ""2023-03-05"": [ ""09:00 - 20:00"" ] }",Ratastooliga ja lapsevankriga ligipääsetavus olemas. Suur parkla asub sissepääsu läheduses. Ühistranspordi peatus läheduses (ca 100 m).,643-1327.jpg,Vastseliina Rahvamaja,"Võidu tn 38, Vastseliina alevik, Võru vald, Võru maakond","1327",helle.kauts@voruvald.ee,"+37258887403","+37257875848","4",true,2023/03/03,,
57.903397,26.987668,"{ ""2023-03-04"": [ ""12:00 - 20:00"" ], ""2023-03-05"": [ ""09:00 - 20:00"" ] }",Ratastooliga ja lapsevankriga ligipääsetavus olemas. Parkla asub sissepääsu läheduses. Ühistranspordi peatus ca 400 m kaugusel.,644-1329.jpg,Parksepa noortemaja,"Võru tee 4/1, Parksepa alevik, Võru vald, Võru maakond","1329",aavo.kenk@mail.ee,"+37258887404","+37257875848","5",false,2023/03/03,,
57.8902759662942,27.0114277964545,"{ ""2023-03-03"": [ ""12:00 - 20:00"" ] }",Ratastooliga ja lapsevankriga ligipääsetavus olemas. Parkla asub sissepääsu läheduses. Ühistranspordi peatus ca 250 m kaugusel.,644-1331.jpg,Väimela Tervisekeskus,"Matussaare tee 2, Väimela alevik, Võru vald, Võru maakond","1331",aavo.kenk@mail.ee,"+37258887404","+37257875848","5",false,2023/03/03,,
57.7961288357552,27.0313801470789,"{ ""2023-03-03 - 2023-03-04"": [ ""12:00 - 20:00"" ], ""2023-03-05"": [ ""09:00 - 20:00"" ] }","Parkla asub sissepääsu läheduses. Ühistranspordi peatus ca 170 m kaugusel.
Kaldtee ratastooli ja lapsevankriga ligipääsemiseks asub teisel pool maja, vajalik ettehelistamine jaoskonnakomisjonile.",645-1332.jpg,Puiga Põhikool,"Järve tn 7, Puiga küla, Võru vald, Võru maakond","1332",mai@voruvald.ee,"+37258887405","+37257875848","6",false,2023/03/03,26.1636072065584,58.2999989835351
59.42169,27.506666,"{ ""2023-02-27 - 2023-03-04"": [ ""12:00 - 20:00"" ], ""2023-03-05"": [ ""09:00 - 20:00"" ] }",Ligipääsetavus tagatud kõikidele valijatele,646-1334.jpg,Toila seltsimaja,"Pikk tn 41, Toila alevik, Toila vald, Ida-Viru maakond","1334",lenne63@hot.ee,"+37258887159","+37258887159","1",true,2023/03/03,,
59.403537,27.581826,"{ ""2023-03-03 - 2023-03-04"": [ ""12:00 - 20:00"" ], ""2023-03-05"": [ ""09:00 - 20:00"" ] }",Ligipääsetavus tagatakse kõikidele valijatele,647-1336.jpg,Voka raamatukogu,"Narva mnt 2, Voka alevik, Toila vald, Ida-Viru maakond","1336",signe.myyr@toila.ee,"+37258887160","+37258887160","2",false,2023/03/03,26.1636072065584,58.2999989835351
59.408619,27.301941,"{ ""2023-03-03 - 2023-03-04"": [ ""12:00 - 20:00"" ], ""2023-03-05"": [ ""09:00 - 20:00"" ] }",Ligipääsetavus tagatud kõikidele valijatele,648-1339.jpg,Järve noortekeskus,"Järve küla 10, Järve küla, Toila vald, Ida-Viru maakond","1339",hannes.lumiste@toila.ee,"+37258887161","+37258887161","3",false,2023/03/03,26.1636072065584,58.2999989835351
59.354611,27.193082,"{ ""2023-03-03 - 2023-03-04"": [ ""12:00 - 20:00"" ], ""2023-03-05"": [ ""09:00 - 20:00"" ] }",Ligipääsetavus tagatud kõikidele valijatele,649-1340.jpg,Kohtla-Nõmme Kool,"Kooli tn 6, Kohtla-Nõmme alev, Toila vald, Ida-Viru maakond","1340",ylle.aul@gmail.com,"+37258887162","+37258887162","4",false,2023/03/03,26.1636072065584,58.2999989835351
58.605303,23.233551,"{ ""2023-02-27 - 2023-03-04"": [ ""12:00 - 20:00"" ], ""2023-03-05"": [ ""09:00 - 20:00"" ] }","Hääletamisruum on ligipääsetav kõikidele valijatele, hoone juures on parkla, hoone lähedal on ühistranspordi peatus.",650-1343.jpg,Muhu Maja,"Keskuse, Liiva küla, Muhu vald, Saare maakond","1343",valimised@muhu.ee,"+37258887297","+3724530677","1",true,2023/03/03,,
59.037925,25.87905,"{ ""2023-03-05"": [ ""09:00 - 20:00"" ] }",Hääletamisruumi pääseb ratastooliga ja lapsevankriga.,651-1344.jpg,Järva-Jaani teeninduskeskus,"Pikk tn 56, Järva-Jaani alev, Järva vald, Järva maakond","1344",kaja.reinberg@jarva.ee,"+37258887179","+37253040980","1",true,2023/03/03,,
58.9441972995423,25.8352314820159,"{ ""2023-03-04"": [ ""12:00 - 20:00"" ] }",Sissepääs võimalik ratastooli ja lapsevankriga.,651-1346.jpg,Peetri Kooli hoone,"Kesktee 11, Peetri alevik, Järva vald, Järva maakond","1346",kaja.reinberg@jarva.ee,"+37258887179","+37253040980","1",true,2023/03/03,,
59.142647,25.754811,"{ ""2023-03-03 - 2023-03-04"": [ ""12:00 - 20:00"" ], ""2023-03-05"": [ ""09:00 - 20:00"" ] }",Sissepääs võimalik ratastooli ja lapsevankriga.,652-1347.jpg,Aravete raamatukogu,"Piibe mnt 21/2, Aravete alevik, Järva vald, Järva maakond","1347",tea.loodis@jarva.ee,"+37258887180","+37253040980","2",false,2023/03/03,26.1636072065584,58.2999989835351
59.19282,25.83771,"{ ""2023-03-03"": [ ""12:00 - 20:00"" ] }",Sissepääs võimalik ratastooli ja lapsevankriga.,652-1348.jpg,Ambla kultuurimaja,"Pikk tn 15, Ambla alevik, Järva vald, Järva maakond","1348",tea.loodis@jarva.ee,"+37258887180","+37253040980","2",false,2023/03/03,,
59.152192,25.659372,"{ ""2023-03-04"": [ ""12:00 - 20:00"" ] }",Sissepääs võimalik ratastooli ja lapsevankriga.,652-1349.jpg,Albu rahvamaja,"Ojaküla tee 1, Albu küla, Järva vald, Järva maakond","1349",tea.loodis@jarva.ee,"+37258887180","+37253040980","2",false,2023/03/03,,
58.9623302618077,26.0249036544397,"{ ""2023-03-03 - 2023-03-04"": [ ""12:00 - 20:00"" ], ""2023-03-05"": [ ""09:00 - 20:00"" ] }",Sissepääs võimalik ratastooli ja lapsevankriga,653-1352.jpg,Koeru teeninduskeskus,"Paide tee 5, Koeru alevik, Järva vald, Järva maakond","1352",elle.saks@jarva.ee,"+37258887181","+37253040980","3",false,2023/03/03,26.1636072065584,58.2999989835351
58.809825,25.938971,"{ ""2023-03-04"": [ ""12:00 - 20:00"" ] }",Sissepääs võimalik ratastooli ja lapsevankriga.,654-1354.jpg,Päinurme rahvamaja,"Meierei tn 6, Päinurme küla, Järva vald, Järva maakond","1354",anne.uus@jarva.ee,"+37258887182","+37253040980","4",false,2023/03/03,,
58.8340358372878,25.7502859769767,"{ ""2023-03-03"": [ ""12:00 - 20:00"" ], ""2023-03-05"": [ ""09:00 - 20:00"" ] }",Sissepääs võimalik ratastooli ja lapsevankriga.,654-1355.jpg,Koigi teeninduskeskus,"Mõisavahe tee 9, Koigi küla, Järva vald, Järva maakond","1355",anne.uus@jarva.ee,"+37258887182","+37253040980","4",false,2023/03/03,,
58.7345576511356,25.7677475712438,"{ ""2023-03-03 - 2023-03-04"": [ ""12:00 - 20:00"" ], ""2023-03-05"": [ ""09:00 - 20:00"" ] }",Sissepääs võimalik ratastooli ja lapsevankriga.,655-1356.jpg,Imavere teeninduskeskus,"Viljandi mnt 11, Imavere küla, Järva vald, Järva maakond","1356",kristi.laane@jarva.ee,"+37258887183",,"5",false,2023/03/03,26.1636072065584,58.2999989835351
58.61013,24.50128,"{ ""2023-03-03 - 2023-03-04"": [ ""12:00 - 20:00"" ], ""2023-03-05"": [ ""09:00 - 20:00"" ] }","Hoone juures on tagatud parkimisvõimalus, hääletamisruum asub II korrusel kuhu pääseb liftiga, on tagatud ligipääs nii ratastooliga kui ka muude abivahenditega liikumiseks.",657-1358.jpg,Pärnu-Jaagupi halduskeskus,"Kooli tn 2, Pärnu-Jaagupi alev, Põhja-Pärnumaa vald, Pärnu maakond","1358",eve.lempu@pparnumaa.ee,"+37258887252","+37259195833","1",false,2023/03/03,26.1636072065584,58.2999989835351
58.658891,24.482698,"{ ""2023-03-03"": [ ""12:00 - 20:00"" ], ""2023-03-05"": [ ""09:00 - 20:00"" ] }","Hääletamisruum asub I korrusel, ruumides on piisavalt ruumi, et liikuda ratastooliga või muude abivahenditega. Hoonesse sisenemisel on kahe trepiastmega trepp, mille ületamisel vajadusel abistavad jaoskonnakomisjoni liikmed. Hoone juures on olemas parkimisvõimalus.",658-1361.jpg,Libatse lasteaia hoone,"Kooli tn 3, Libatse küla, Põhja-Pärnumaa vald, Pärnu maakond","1361",helena.erm@mail.ee,"+37258887253","+3725292045","2",false,2023/03/03,,
58.584286,24.783957,"{ ""2023-03-03 - 2023-03-04"": [ ""12:00 - 20:00"" ], ""2023-03-05"": [ ""09:00 - 20:00"" ] }","Hääletamisruum asub I korrusel, kuid see ei ole sissepääsuga samal tasapinnal, sissepääsu välistrepp on varustatud kaldteega, et pääseda edasi on võimalik pagaldada teisaldatav kaldtee, sellega abistavad jaoskonnakomisjoni liikmed. Hoone juures on olemas parkimisvõimalus.",659-1362.jpg,Tootsi halduskeskus,"Tuleviku tn 1, Tootsi alev, Põhja-Pärnumaa vald, Pärnu maakond","1362",krista.lindmae@pparnumaa.ee,"+37258887254","+37259195833","3",false,2023/03/03,26.1636072065584,58.2999989835351
58.652615,25.029822,"{ ""2023-02-27 - 2023-03-04"": [ ""12:00 - 20:00"" ], ""2023-03-05"": [ ""09:00 - 20:00"" ] }","Hääletamisruum asub I korrusel, hoone sissepääs on varustatud kaldteega ning on tagatud ligipääs nii ratastooliga kui ka muude abivahenditega liikumisel. Hoone juures on olemas parkimisvõimalus.",660-1364.jpg,Vändra Kultuurimaja,"Pärnu-Paide mnt 2, Vändra alev, Põhja-Pärnumaa vald, Pärnu maakond","1364",kerstin.sempelson@pparnumaa.ee,"+37258887255","+3725292045","4",true,2023/03/03,,
58.622662,25.106335,"{ ""2023-03-03"": [ ""12:00 - 20:00"" ], ""2023-03-05"": [ ""09:00 - 20:00"" ] }","Hääletamisruum asub I korrusel, hoone sissepääs on varustatud kaldteega ning on tagatud ligipääsetavus nii ratastooliga kui ka muude abivahenditega liikumisel. Hoone juures on võimalik ka parkida.",661-1366.jpg,Suurejõe Rahvamaja,"Vändra mnt 14, Suurejõe küla, Põhja-Pärnumaa vald, Pärnu maakond","1366",turihelily@gmail.com,"+37258887256","+37259195833","5",false,2023/03/03,,
57.743206,26.649227,"{ ""2023-03-04"": [ ""12:00 - 20:00"" ] }","Hääletamisruum asub esimesel korrusel ja komisjoni liikmed vajadusel abistavad. 
Ligipääs ratastooli ja abivahenditega olemas.",624-1367.jpg,Tsooru Rahvamaja,"Tsooru rahvamaja, Tsooru küla, Antsla vald, Võru maakond","1367",liana@antsla.ee,"+37258887387","+37258887387","1",true,2023/03/03,,
57.893278,26.501251,"{ ""2023-03-03"": [ ""12:00 - 20:00"" ] }",Hääletamisruum asub esimesel korrusel ja komisjoni liikmed vajadusel abistavad. Ligipääs ratastooli ja abivahenditega olemas.,624-1368.jpg,Kuldre Kool,"Kuldre kool, Kuldre küla, Antsla vald, Võru maakond","1368",liana@antsla.ee,"+37258887387","+37258887387","1",true,2023/03/03,,
58.8860875581218,25.5613896439693,"{ ""2023-02-27 - 2023-03-04"": [ ""12:00 - 20:00"" ], ""2023-03-05"": [ ""09:00 - 20:00"" ] }","Bussipeatus: Kultuurikeskus.
Hääletamisruum teisel korrusel, võimalik kasutada trepil invatõstukit",664-1369.jpg,Paide Muusika- ja Teatrimaja,"Pärnu tn 18, Paide linn, Paide linn, Järva maakond","1369",valimised@paide.ee,"+37258887184","+37258887184","1",true,2023/03/03,,
58.888880758562,25.557629173888,"{ ""2023-03-03 - 2023-03-04"": [ ""12:00 - 20:00"" ], ""2023-03-05"": [ ""09:00 - 20:00"" ] }","Ratastooliga hääletamisruumi pääsemiseks vaja ette helistada, sisse pääseb hoovi poolt.
Lähim bussipeatus: Kultuurikeskus",665-1372.jpg,Järvamaa Keskraamatukogu,"Lai tn 33, Paide linn, Paide linn, Järva maakond","1372",valimised@paide.ee,"+37258887185","+37258887185","2",false,2023/03/03,26.1636072065584,58.2999989835351
58.8864551756516,25.5696115403348,"{ ""2023-03-05"": [ ""09:00 - 20:00"" ] }","Ratastooli kasutajal sissepääs Raekoja tagauksest, tuleb ette helistada.
Lähim bussipeatus: Keskväljak või Kesklinn",666-1373.jpg,Paide Raekoda,"Keskväljak 14, Paide linn, Paide linn, Järva maakond","1373",valimised@paide.ee,"+37258887186","+37258887186","3",false,2023/03/03,,
58.8898909065512,25.7185231947136,"{ ""2023-03-03"": [ ""12:00 - 20:00"" ] }",Lähim bussipeatus: Sargvere,666-1374.jpg,Sargvere Keskus,"Pikk tn 4, Sargvere küla, Paide linn, Järva maakond","1374",valimised@paide.ee,"+37258887186","+37258887186","3",false,2023/03/03,,
59.006456801055,25.599026379923,"{ ""2023-03-04"": [ ""12:00 - 20:00"" ] }",Lähim bussipeatus: Anna või Annaristi,666-1375.jpg,Anna Vaba Aja Maja,"Kanarbiku tee 4, Anna küla, Paide linn, Järva maakond","1375",valimised@paide.ee,"+37258887186","+37258887186","3",false,2023/03/03,,
58.9486265900108,25.665300487032,"{ ""2023-03-03"": [ ""12:00 - 20:00"" ] }",Lähim bussipeatus: Viisu,,Viisu Rahvamaja,"Viisu mnt 4, Viisu küla, Paide linn, Järva maakond","1377",valimised@paide.ee,"+37258887187","+37258887187","4",false,2023/03/03,,
59.029938223255,25.7086217808134,"{ ""2023-03-04"": [ ""12:00 - 20:00"" ], ""2023-03-05"": [ ""09:00 - 20:00"" ] }",Lähim bussipeatus: Roosna-Alliku,,Roosna-Alliku Rahvamaja,"Pargi tn 10, Roosna-Alliku alevik, Paide linn, Järva maakond","1378",valimised@paide.ee,"+37258887187","+37258887187","4",false,2023/03/03,,
59.2900071997248,26.425658299588,"{ ""2023-02-27 - 2023-03-04"": [ ""12:00 - 20:00"" ], ""2023-03-05"": [ ""09:00 - 20:00"" ] }","Sissepääs võimalik ratastooli ja lapsevankriga ning muude abivahenditega. 
Parkimisvõimalus.
",668-1379.jpg,Vinni spordikompleks,"Sõpruse tn 16, Vinni alevik, Vinni vald, Lääne-Viru maakond","1379",inga@vinnivald.ee,"+37258887218",,"1",true,2023/03/03,,
59.2304702072325,26.33932223195,"{ ""2023-03-03"": [ ""12:00 - 20:00"" ] }","Parkimisvõimalus.
Bussipeatus asub ca 150 m kaugusel. ",669-1382.jpg,Kadila seltsimaja,"Pärna tn 4, Kadila küla, Vinni vald, Lääne-Viru maakond","1382",tiiu.ivanova@vinnivald.ee,"+37258887219","+37253813908","2",false,2023/03/03,,
59.2838301383367,26.4152854451746,"{ ""2023-03-04"": [ ""12:00 - 20:00"" ], ""2023-03-05"": [ ""09:00 - 20:00"" ] }","Parkimisvõimalus.
Bussipeatus asub ca 120 m kaugusel.",669-1383.jpg,Pajusti klubi,"Tartu mnt 11, Pajusti alevik, Vinni vald, Lääne-Viru maakond","1383",tiiu.ivanova@vinnivald.ee,"+37258887219","+37253813908","2",false,2023/03/03,,
59.2411454961238,26.475334224382,"{ ""2023-03-03 - 2023-03-04"": [ ""12:00 - 20:00"" ], ""2023-03-05"": [ ""09:00 - 20:00"" ] }","Parkimisvõimalus.
Bussipeatus asub ca 420 m kaugusel. 

",670-1384.jpg,Endine Viru-Jaagupi koolimaja,"Kooli tee 7, Viru-Jaagupi alevik, Vinni vald, Lääne-Viru maakond","1384",ulle.rajamart@gmail.com,"+37258887220","+37253813908","3",false,2023/03/03,26.1636072065584,58.2999989835351
59.1664371559857,26.5904411082685,"{ ""2023-03-04"": [ ""12:00 - 20:00"" ], ""2023-03-05"": [ ""09:00 - 20:00"" ] }","Parkimisvõimalus.
Bussipeatus asub ca 380 m kaugusel.",671-1386.jpg,Roela rahvamaja ,"Sinilille tn 1, Roela alevik, Vinni vald, Lääne-Viru maakond","1386",nele@vinnivald.ee,"+37258887221","+37253813908","4",false,2023/03/03,,
59.1787600335315,26.8556157937988,"{ ""2023-03-03"": [ ""12:00 - 20:00"" ] }","Parkimisvõimalus.
Bussipeatus asub ca 70 m kaugusel.",671-1388.jpg,Tudu koolimaja,"Rakvere mnt 13, Tudu alevik, Vinni vald, Lääne-Viru maakond","1388",nele@vinnivald.ee,"+37258887221","+37253813908","4",false,2023/03/03,,
59.0674836382447,26.5584166770244,"{ ""2023-03-05"": [ ""09:00 - 20:00"" ] }","Sissepääs võimalik ratastooli ja lapsevankriga ning muude abivahenditega. 
Parkimisvõimalus.
",672-1389.jpg,Laekvere rahvamaja,"Kesk tn 12, Laekvere alevik, Vinni vald, Lääne-Viru maakond","1389",andrus@vinnivald.ee,"+37258887222","+37253813908","5",false,2023/03/03,,
59.0137079151528,26.7073502552243,"{ ""2023-03-03"": [ ""12:00 - 20:00"" ] }","Parkimisvõimalus.
Bussipeatus asub ca 100 m kaugusel. ",672-1390.jpg,Venevere seltsimaja,"Kooli, Venevere küla, Vinni vald, Lääne-Viru maakond","1390",andrus@vinnivald.ee,"+37258887222","+37253813908","5",false,2023/03/03,,
59.1121546469208,26.6304730870795,"{ ""2023-03-04"": [ ""12:00 - 20:00"" ] }","Sissepääs võimalik ratastooli ja lapsevankriga ning muude abivahenditega. 
Parkimisvõimalus.
",672-1391.jpg,Muuga spordihoone ,"Alekvere tee 1, Muuga küla, Vinni vald, Lääne-Viru maakond","1391",andrus@vinnivald.ee,"+37258887222","+37253813908","5",false,2023/03/03,,
59.3256507162297,26.6320624358479,"{ ""2023-03-03 - 2023-03-04"": [ ""12:00 - 20:00"" ], ""2023-03-05"": [ ""09:00 - 20:00"" ] }","Sissepääs võimalik ratastooli ja lapsevankriga ning muude abivahenditega. 
Parkimisvõimalus.
",673-1392.jpg,Ulvi klubi,"Mõisa tee 5, Ulvi küla, Vinni vald, Lääne-Viru maakond","1392",virgo@vinnivald.ee,"+37258887223","+37253813908","6",false,2023/03/03,26.1636072065584,58.2999989835351
58.355487690572,26.8803268397087,"{ ""2023-02-27 - 2023-03-04"": [ ""12:00 - 20:00"" ], ""2023-03-05"": [ ""09:00 - 20:00"" ] }",Ligipääs ratastooliga tagatud.,675-1396.jpg,Luunja vallamaja,"Puiestee tn 14, Luunja alevik, Luunja vald, Tartu maakond","1396",valimiskomisjon@luunja.ee,"+37258887326","+37258887326","1",true,2023/03/03,,
59.3653705313319,28.1813845953307,"{ ""2023-03-03 - 2023-03-04"": [ ""12:00 - 20:00"" ], ""2023-03-05"": [ ""09:00 - 20:00"" ] }",Ligipääs ratastooliga (invatõstuk).Hoone juures on parkla ja lähedal on ühistranspordi peatused.,677-1399.jpg,Narva Muusikakooli Kooriosakond,"26. Juuli tn 9, Narva linn, Ida-Viru maakond","1399",info@narva.ee,"+37258887147","+3723599019","1",false,2023/03/03,26.1636072065584,58.2999989835351
59.3652731263871,28.191768236988,"{ ""2023-03-03 - 2023-03-04"": [ ""12:00 - 20:00"" ], ""2023-03-05"": [ ""09:00 - 20:00"" ] }",Ratastooli ja lapsevankriga ligipääs puudub. Hoone juures on võimalik parkida ja lähedal on ühistranspordi peatused.,678-1400.jpg,Narva Kreenholmi Gümnaasium,"V. Gerassimovi tn 2, Narva linn, Ida-Viru maakond","1400",info@narva.ee,"+37258887148","+3723599019","2",false,2023/03/03,26.1636072065584,58.2999989835351
59.3741737640321,28.1794652330824,"{ ""2023-03-03 - 2023-03-04"": [ ""12:00 - 20:00"" ], ""2023-03-05"": [ ""09:00 - 20:00"" ] }",Ratastooli ja lapsevankriga ligipääs puudub. Hoone juures on võimalik parkida ja lähedal on ühistranspordi peatused.,679-1402.jpg,Narva 6. Kool,"P. Kerese tn 22, Narva linn, Ida-Viru maakond","1402",info@narva.ee,"+37258887149","+3723599019","3",false,2023/03/03,26.1636072065584,58.2999989835351
59.3796799282743,28.1760138112675,"{ ""2023-03-03 - 2023-03-04"": [ ""12:00 - 20:00"" ], ""2023-03-05"": [ ""09:00 - 20:00"" ] }",Sissepääsu juures on kaldtee. Hoone juures on parkla ja lähedal on ühistranspordi peatused.,680-1404.jpg,Geneva Kontserdimaja,"Võidu prospekt 2, Narva linn, Ida-Viru maakond","1404",info@narva.ee,"+37258887150","+3723599019","4",false,2023/03/03,26.1636072065584,58.2999989835351
59.3729601174728,28.1980507208769,"{ ""2023-02-27 - 2023-03-04"": [ ""12:00 - 20:00"" ], ""2023-03-05"": [ ""09:00 - 20:00"" ] }",Sissepääsu juures on kaldtee. Hoone juures on parkla ja lähedal on ühistranspordi peatused.,681-1406.jpg,Kultuurimaja Rugodiv,"A. Puškini tn 8, Narva linn, Ida-Viru maakond","1406",info@narva.ee,"+37258887151","+3723599019","5",true,2023/03/03,,
59.3846952425299,28.1704563606875,"{ ""2023-03-03 - 2023-03-04"": [ ""12:00 - 20:00"" ], ""2023-03-05"": [ ""09:00 - 20:00"" ] }",Ratastooli ja lapsevankriga ligipääs puudub. Hoone juures on võimalik parkida ja lähedal on ühistranspordi peatused.,682-1408.jpg,Narva Pähklimäe Gümnaasium,"Pähklimäe tn 3, Narva linn, Ida-Viru maakond","1408",info@narva.ee,"+37258887152","+3723599019","6",false,2023/03/03,26.1636072065584,58.2999989835351
59.3850617705046,28.1928379034445,"{ ""2023-03-03 - 2023-03-04"": [ ""12:00 - 20:00"" ], ""2023-03-05"": [ ""09:00 - 20:00"" ] }",Sissepääsu juures on kaldtee. Hoone juures on parkla ja lähedal on ühistranspordi peatused.,683-1410.jpg,Narva Spordikeskus,"Rakvere tn 22d, Narva linn, Ida-Viru maakond","1410",info@narva.ee,"+37258887153","+3723599019","7",false,2023/03/03,26.1636072065584,58.2999989835351
59.3796372308061,28.1897752149364,"{ ""2023-03-03 - 2023-03-04"": [ ""12:00 - 20:00"" ], ""2023-03-05"": [ ""09:00 - 20:00"" ] }",Ratastooli ja lapsevankriga ligipääs puudub. Hoone juures on võimalik parkida ja lähedal on ühistranspordi peatused.,684-1412.jpg,Narva Paemurru Spordikooli lauatennisehall,"Fama tn 2, Narva linn, Ida-Viru maakond","1412",info@narva.ee,"+37258887154","+3723599019","8",false,2023/03/03,26.1636072065584,58.2999989835351
57.7185802046773,27.0519346241245,"{ ""2023-03-03 - 2023-03-04"": [ ""12:00 - 20:00"" ], ""2023-03-05"": [ ""09:00 - 20:00"" ] }",Valimisjaoskond on ligipääsetav nii ühistranspordiga (bussipeatuse vahetuslähedus) kui ratastooliga (vajadusel paigaldatakse ajutine kaldtee).,,Haanja teenuskeskus,"Võru tee 15, Haanja küla, Rõuge vald, Võru maakond","1414",valimised@rougevald.ee,"+37258887388","+37258887388","1",false,2023/03/03,26.1636072065584,58.2999989835351
57.6021130879999,27.2266763426514,"{ ""2023-03-03 - 2023-03-04"": [ ""12:00 - 20:00"" ], ""2023-03-05"": [ ""09:00 - 20:00"" ] }",Valimisjaoskond on ligipääsetav nii ühistranspordiga (bussipeatus Misso alevikus) kui ratastooliga (olemasolev kaldtee).,,Misso rahvamaja,"Tsiistre tee 3, Misso alevik, Rõuge vald, Võru maakond","1416",valimised@rougevald.ee,"+37258887389","+37258887389","2",false,2023/03/03,26.1636072065584,58.2999989835351
57.6133194971893,26.6084897674587,"{ ""2023-03-03 - 2023-03-04"": [ ""12:00 - 20:00"" ], ""2023-03-05"": [ ""09:00 - 20:00"" ] }",Valimisjaoskond on ligipääsetav nii ühistranspordiga (bussipeatuse vahetuslähetus) kui ratastooliga.,,Mõniste teenuskeskus,"Mendise, Mõniste küla, Rõuge vald, Võru maakond","1419",valimised@rougevald.ee,"+37258887390","+37258887390","3",false,2023/03/03,26.1636072065584,58.2999989835351
57.7322775515412,26.927609502904,"{ ""2023-02-27 - 2023-03-04"": [ ""12:00 - 20:00"" ], ""2023-03-05"": [ ""09:00 - 20:00"" ] }",Valimisjaoskond on ligipääsetav nii ühistranspordiga (bussipeatused Rõuge keskuses ja rahvamaja juures) kui ratastooliga.,,Rõuge rahvamaja,"Metsa tn 1, Rõuge alevik, Rõuge vald, Võru maakond","1420",valimised@rougevald.ee,"+37258887391","+37258887391","4",true,2023/03/03,,
57.6469181646259,26.6683408811609,"{ ""2023-03-03 - 2023-03-04"": [ ""12:00 - 20:00"" ], ""2023-03-05"": [ ""09:00 - 20:00"" ] }",Valimisjaoskond on ligipääsetav nii ühistranspordiga (bussipeatus Varstu alevikus) kui ratastooliga (vajadusel paigaldatakse teisaldatav kaldtee).,,Varstu kultuurikeskus,"Kultuuri tn 1, Varstu alevik, Rõuge vald, Võru maakond","1422",valimised@rougevald.ee,"+37258887392","+37258887392","5",false,2023/03/03,26.1636072065584,58.2999989835351
58.3165276176348,26.7243863284516,"{ ""2023-03-03 - 2023-03-04"": [ ""12:00 - 20:00"" ], ""2023-03-05"": [ ""09:00 - 20:00"" ] }","Kaldtee ratastooli jaoks olemas. 
Ühistranspordiga tulek võimalik.",692-1424.jpg,"Eesti Maaelumuuseumid, häärberihoone saal","Pargi tn 4, Ülenurme alevik, Kambja vald, Tartu maakond","1424",marina.lehismets@kambja.ee,"+37258887319","+37256885812","1",false,2023/03/03,26.1636072065584,58.2999989835351
58.321157575152,26.706571930433,"{ ""2023-03-05"": [ ""09:00 - 20:00"" ] }","Kaldtee ratastooli jaoks olemas. 
Ühistranspordiga tulek võimalik.",693-1426.jpg,Tõrvandi Raamatukogu saal,"Ringtee 1, Tõrvandi alevik, Kambja vald, Tartu maakond","1426",marina.lehismets@kambja.ee,"+37258887320","+37256885812","2",true,2023/03/03,,
58.321158,26.706572,"{ ""2023-02-27 - 2023-03-02"": [ ""12:00 - 20:00"" ], ""2023-03-03 - 2023-03-04"": [ ""12:00 - 20:00"" ] }","Kaldtee ratastooli jaoks olemas. 
Ühistranspordiga tulek võimalik.",693-1427.jpg,Tõrvandi Raamatukogu saal,"Ringtee 1, Tõrvandi alevik, Kambja vald, Tartu maakond","1427",marina.lehismets@kambja.ee,"+37258887320","+37256885812","2",true,2023/03/03,,
58.3232619562487,26.6222584342869,"{ ""2023-03-03 - 2023-03-04"": [ ""12:00 - 20:00"" ], ""2023-03-05"": [ ""09:00 - 20:00"" ] }","Ratastooliga ligipääs puudub, ühistranspordi võimalus olemas",694-1428.jpg,Külitse raamatukogu,"Järve tee 1, Külitse alevik, Kambja vald, Tartu maakond","1428",marina.lehismets@kambja.ee,"+37258887321","+37256885812","3",false,2023/03/03,26.1636072065584,58.2999989835351
58.236182516998,26.6949899495488,"{ ""2023-03-03"": [ ""12:00 - 20:00"" ], ""2023-03-05"": [ ""09:00 - 20:00"" ] }","Kaldtee ratastooli jaoks olemas. Ühistranspordiga tulek võimalik.
",695-1430.jpg,Kambja vallavalitsuse teenuskeskus,"Kesk tn 2, Kambja alevik, Kambja vald, Tartu maakond","1430",marina.lehismets@kambja.ee,"+37258887322","+37256885812","4",false,2023/03/03,,
57.77682,26.034917,"{ ""2023-02-27 - 2023-03-04"": [ ""12:00 - 20:00"" ], ""2023-03-05"": [ ""09:00 - 20:00"" ] }","valimisjaoskond asub hoone I korrusel, juurdepääs ratastooli, lapsevankriga. Ühistranspordipeatus vahetus läheduses, parkimisvõimalus vahetus läheduses. ",,Valga Kultuuri- ja Huvialakeskus,"Kesk tn 1, Valga linn, Valga vald, Valga maakond","1435",valimisjaoskond@valga.ee ,"+37258887361","+37258887361","1",true,2023/03/03,,
58.25284,26.782292,"{ ""2023-03-04"": [ ""12:00 - 20:00"" ] }","Ratastooliga juurdepääs puudub, ühistranspordiga tulek võimalik.",695-1437.jpg,Kuuste koolimaja,"Kooli tee 2, Vana-Kuuste küla, Kambja vald, Tartu maakond","1437",marina.lehismets@kambja.ee,"+37258887322","+37256885812","4",false,2023/03/03,,
57.774777,26.052841,"{ ""2023-03-03 - 2023-03-04"": [ ""12:00 - 20:00"" ], ""2023-03-05"": [ ""09:00 - 20:00"" ] }","valimisjaoskond asub hoone I korrusel, juurdepääs ratastooli, lapsevankriga. Ühistranspordipeatus vahetus läheduses, parkimisvõimalus vahetus läheduses. ",,Valga Raudteejaam,"Jaama pst 12, Valga linn, Valga vald, Valga maakond","1438",valimisjaoskond@valga.ee,"+37258887362","+37258887362","2",false,2023/03/03,26.1636072065584,58.2999989835351
57.613759,26.399155,"{ ""2023-03-03 - 2023-03-04"": [ ""12:00 - 20:00"" ], ""2023-03-05"": [ ""09:00 - 20:00"" ] }","valimisjaoskond asub hoone I korrusel, juurdepääs ratastooli, lapsevankriga. Parkimisvõimalus vahetus läheduses. ",,Hargla Maakultuurimaja,"Kultuurimaja, Hargla küla, Valga vald, Valga maakond","1440",valimisjaoskond@valga.ee,"+37258887363","+37258887363","3",false,2023/03/03,26.1636072065584,58.2999989835351
57.862116,26.182916,"{ ""2023-03-03 - 2023-03-04"": [ ""12:00 - 20:00"" ], ""2023-03-05"": [ ""09:00 - 20:00"" ] }","valimisjaoskond asub hoone I korrusel, juurdepääs ratastooli, lapsevankriga. Parkimisvõimalus vahetus läheduses. ",,Tsirguliina Rahvamaja,"Tehase tn 2, Tsirguliina alevik, Valga vald, Valga maakond","1442",valimisjaoskond@valga.ee,"+37258887364","+37258887364","4",false,2023/03/03,26.1636072065584,58.2999989835351
57.926605,26.176782,"{ ""2023-03-03 - 2023-03-04"": [ ""12:00 - 20:00"" ], ""2023-03-05"": [ ""09:00 - 20:00"" ] }","valimisjaoskond asub hoone I korrusel. Juurdepääs ratastooli, lapsevankriga. Parkimisvõimalus vahetus läheduses. ",,Õru Lasteaed-Algkool,"Kooli tn 2, Õru alevik, Valga vald, Valga maakond","1444",valimisjaoskond@valga.ee,"+37258887365","+37258887365","5",false,2023/03/03,26.1636072065584,58.2999989835351
57.750838,26.371209,"{ ""2023-03-03 - 2023-03-04"": [ ""12:00 - 20:00"" ], ""2023-03-05"": [ ""09:00 - 20:00"" ] }","valimisjaoskond asub hoone I korrusel, juurdepääs ratastooli, lapsevankriga. Parkimisvõimalus vahetus läheduses. ",,Lüllemäe Raamatukogu,"Kirikumõisa tee 1, Lüllemäe küla, Valga vald, Valga maakond","1446",valimisjaoskond@valga.ee,"+37258887366","+37258887366","6",false,2023/03/03,26.1636072065584,58.2999989835351
59.2974050390116,24.6602423702161,"{ ""2023-02-27 - 2023-03-04"": [ ""12:00 - 20:00"" ], ""2023-03-05"": [ ""09:00 - 20:00"" ] }",Ligipääsetav ratastooliga,703-1448.jpg,Saku Vallamaja,"Juubelitammede tee 15, Saku alevik, Saku vald, Harju maakond","1448",katre.ulmas@sakuvald.ee,"+37258887115","+37258887115","1",true,2023/03/03,,
59.3044076908493,24.6742631180244,"{ ""2023-03-03 - 2023-03-04"": [ ""12:00 - 20:00"" ], ""2023-03-05"": [ ""09:00 - 20:00"" ] }",Ligipääsetav ratastooliga,704-1451.jpg,Saku Gümnaasiumi põhikoolihoone,"Tallinna mnt 10, Saku alevik, Saku vald, Harju maakond","1451",miia.siidra@sakuvald.ee,"+37258887116","+37258887116","2",false,2023/03/03,26.1636072065584,58.2999989835351
59.2341092858175,24.6893169499798,"{ ""2023-03-03 - 2023-03-04"": [ ""12:00 - 20:00"" ], ""2023-03-05"": [ ""09:00 - 20:00"" ] }",Ligipääsetav ratastooliga,705-1453.jpg,Kiisa Vabaajakeskus,"Kurtna tee 8, Kiisa alevik, Saku vald, Harju maakond","1453",maie.raizman@mail.ee,"+37258887117","+37258887117","3",false,2023/03/03,26.1636072065584,58.2999989835351
59.3231813007072,24.5548781424403,"{ ""2023-02-27 - 2023-03-04"": [ ""12:00 - 20:00"" ], ""2023-03-05"": [ ""09:00 - 20:00"" ] }",Sissepääs võimalik ratastooli ja lapsevankriga,709-1454.jpg,Saue vallamaja,"Kütise tn 8, Saue linn, Saue vald, Harju maakond","1454",valimised@sauevald.ee,"+37258887118","+3725533231","1",true,2023/03/03,,
59.3513087027678,24.6108826906799,"{ ""2023-03-03 - 2023-03-04"": [ ""12:00 - 20:00"" ], ""2023-03-05"": [ ""09:00 - 20:00"" ] }",Sissepääs võimalik ratastooli ja lapsevankriga,710-1456.jpg,Laagri kultuurikeskus,"Veskitammi tn 8, Laagri alevik, Saue vald, Harju maakond","1456",valimised@sauevald.ee,"+37258887119","+3725533231","2",false,2023/03/03,26.1636072065584,58.2999989835351
59.245062,24.506459,"{ ""2023-03-05"": [ ""09:00 - 20:00"" ] }",Sissepääs võimalik ratastooli ja lapsevankriga,711-1458.jpg,Ääsmäe Põhikool,"Kasesalu tn 16, Ääsmäe küla, Saue vald, Harju maakond","1458",valimised@sauevald.ee,"+37258887120","+3725533231","3",false,2023/03/03,,
59.1281386333581,24.4712961531759,"{ ""2023-03-04"": [ ""12:00 - 20:00"" ] }",Sissepääs võimalik ratastooli ja lapsevankriga,711-1459.jpg,Haiba rahvamaja,"Riisipere tee 6, Haiba küla, Saue vald, Harju maakond","1459",valimised@sauevald.ee,"+37258887120","+3725533231","3",false,2023/03/03,,
59.1908639449205,24.4401889034739,"{ ""2023-03-03"": [ ""12:00 - 20:00"" ] }",Sissepääs võimalik ratastooli ja lapsevankriga,711-1460.jpg,Ruila raamatukogu,"Ruila kool/1, Ruila küla, Saue vald, Harju maakond","1460",valimised@sauevald.ee,"+37258887120","+3725533231","3",false,2023/03/03,,
59.1034251031014,24.3125282589295,"{ ""2023-03-05"": [ ""09:00 - 20:00"" ] }",Sissepääs võimalik ratastooli ja lapsevankriga,712-1461.jpg,Riisipere kultuurimaja,"Nissi tee 53c, Riisipere alevik, Saue vald, Harju maakond","1461",valimised@sauevald.ee,"+37258887121","+3725533231","4",false,2023/03/03,,
59.0749709894626,24.243200463592,"{ ""2023-03-03"": [ ""12:00 - 20:00"" ] }",Sissepääs võimalik ratastooli ja lapsevankriga,712-1462.jpg,Turba kultuurimaja,"Lehetu tee 12, Turba alevik, Saue vald, Harju maakond","1462",valimised@sauevald.ee,"+37258887121","+3725533231","4",false,2023/03/03,,
59.1966409155859,24.3214770413366,"{ ""2023-03-04"": [ ""12:00 - 20:00"" ] }",,712-1463.jpg,Laitse seltsimaja,"Seltsimaja, Kaasiku küla, Saue vald, Harju maakond","1463",valimised@sauevald.ee,"+37258887121","+3725533231","4",false,2023/03/03,,
58.995294,23.239913,"{ ""2023-02-27 - 2023-03-04"": [ ""12:00 - 20:00"" ], ""2023-03-05"": [ ""09:00 - 20:00"" ] }",Ligipääsetav liikumispuudega inimestele,,Vormsi Rahvamaja,"Rahvamaja, Hullo küla, Vormsi vald, Lääne maakond","1464",marge@vormsi.ee,"+37258887205","+37258887205","1",true,2023/03/03,,
59.357991,26.97461,"{ ""2023-02-27 - 2023-03-04"": [ ""12:00 - 20:00"" ], ""2023-03-05"": [ ""09:00 - 20:00"" ] }",Toimib ühistransport ja ratastooliga ligipääsetavus olemas,714-1466.jpg,Kiviõli I Keskkool,"Viru tn 14, Kiviõli linn, Lüganuse vald, Ida-Viru maakond","1466",aili.rohtla@mail.ee,"+37258887144","+37258887144","1",true,2023/03/03,,
59.374508,27.046266,"{ ""2023-03-04"": [ ""12:00 - 20:00"" ], ""2023-03-05"": [ ""09:00 - 20:00"" ] }",,715-1468.jpg,Endine Lüganuse vallamaja,"Kiviõli tee 8, Lüganuse alevik, Lüganuse vald, Ida-Viru maakond","1468",annekalamae@gmail.com,"+37258887145","+37258887145","2",false,2023/03/03,,
59.360606,27.035471,"{ ""2023-03-03"": [ ""12:00 - 20:00"" ] }",Toimib ühistransport ja ratastooliga ligipääsetavus olemas,715-1470.jpg,Püssi kultuurimaja,"Kooli tn 5, Püssi linn, Lüganuse vald, Ida-Viru maakond","1470",annekalamae@gmail.com,"+37258887145","+37258887145","2",false,2023/03/03,,
59.3568537548407,27.4097990859648,"{ ""2023-02-27 - 2023-03-04"": [ ""12:00 - 20:00"" ], ""2023-03-05"": [ ""09:00 - 20:00"" ] }","Hääletusruumid asuvad esimesel korrusel.
Sissepääs võimalik ratastooli ja lapsevankriga. ",718-1471.jpg,Jõhvi Vallavalitsus,"Kooli tn 2, Jõhvi linn, Jõhvi vald, Ida-Viru maakond","1472",valimised@johvi.ee,"+37258887134","+37258887134","1",true,2023/03/03,,
59.3584030833214,27.4214140495886,"{ ""2023-03-03 - 2023-03-04"": [ ""12:00 - 20:00"" ], ""2023-03-05"": [ ""09:00 - 20:00"" ] }",Hääletusruum asub esimesel korrusel. Sissepääs võimalik ratastooli ja lapsevankriga.,719-1473.jpg,Jõhvi Vene Põhikool,"Narva mnt 16, Jõhvi linn, Jõhvi vald, Ida-Viru maakond","1473",valimised@johvi.ee,"+37258887135","+37258887134","2",false,2023/03/03,26.1636072065584,58.2999989835351
59.3539765156356,27.4229605576421,"{ ""2023-03-03 - 2023-03-04"": [ ""12:00 - 20:00"" ], ""2023-03-05"": [ ""09:00 - 20:00"" ] }",Hääletusruum asub esimesel korrusel. Sissepääs võimalik ratastooli ja lapsevankriga.,720-1475.jpg,Jõhvi Kontserdimaja,"Pargi tn 40, Jõhvi linn, Jõhvi vald, Ida-Viru maakond","1475",valimised@johvi.ee,"+37258887136","+37258887134","3",false,2023/03/03,26.1636072065584,58.2999989835351
59.350967,26.838575,"{ ""2023-03-04"": [ ""12:00 - 20:00"" ], ""2023-03-05"": [ ""09:00 - 20:00"" ] }",Toimib ühistransport ja ratastooliga ligipääsetavus olemas,721-1477.jpg,Sonda Kogukonnamaja,"Lembitu tn 9, Sonda alevik, Lüganuse vald, Ida-Viru maakond","1477",maitses@hot.ee,"+37258887146",,"3",false,2023/03/03,,
59.321888,27.008869,"{ ""2023-03-03"": [ ""12:00 - 20:00"" ] }",Toimib ühistransport ja ratastooliga ligipääsetavus olemas,721-1479.jpg,Maidla rahvamaja,"Maidla tee 56, Savala küla, Lüganuse vald, Ida-Viru maakond","1479",maitses@hot.ee,"+37258887146",,"3",false,2023/03/03,,
58.623485,24.394442,"{ ""2023-03-04"": [ ""12:00 - 20:00"" ] }","Hääletamisruum asub I korrusel, ruumides on piisavalt ruumi, et liikuda ratastooliga või muude abivahenditega. Hoonesse sisenemisel on võimalik kasutada kaldteed. Hoone juures on olemas parkimisvõimalus.",658-1481.jpg,Vaheka seltsimaja,"Vahenurme küla, Põhja-Pärnumaa vald, Pärnu maakond","1481",helena.erm@mail.ee,"+37258887253","+3725292045","2",false,2023/03/03,,
58.58579,25.019895,"{ ""2023-03-04"": [ ""12:00 - 20:00"" ] }","Hääletamisruum asub I korrusel, hoone sissepääs on varustatud kaldteega ning on tagatud ligipääsetavus nii ratastooliga kui ka muude abivahenditega liikumisel. Hoone juures on võimalik ka parkida.",661-1483.jpg,Vihtra Külakeskus,"Jõesuu tee 2, Vihtra küla, Põhja-Pärnumaa vald, Pärnu maakond","1483",turihelily@gmail.com,"+37258887256","+37259195833","5",false,2023/03/03,,
58.633932,24.935391,"{ ""2023-03-03"": [ ""12:00 - 20:00"" ], ""2023-03-05"": [ ""09:00 - 20:00"" ] }","Hääletamisruum asub I korrusel, ruumides on piisavalt ruumi, et liikuda ratastooliga või muude abivahenditega. Hoonesse sisenemisel on kahe trepiastmega trepp, mille ületamisel vajadusel abistavad jaoskonnakomisjoni liikmed. Hoone juures on olemas parkimisvõimalus.",662-1485.jpg,Pärnjõe koolimaja,"Pärnjõe küla, Põhja-Pärnumaa vald, Pärnu maakond","1485",heli.sinijoe@mail.ee,"+37258887257","+3725292045","6",false,2023/03/03,,
58.680668,24.763895,"{ ""2023-03-04"": [ ""12:00 - 20:00"" ] }","Hääletamisruum asub I korrusel, ruumides on piisavalt ruumi, et liikuda ratastooliga või muude abivahenditega. Hoonesse sisenemisel on kolme trepiastmega trepp, mille ületamisel vajadusel abistavad jaoskonnakomisjoni liikmed. Hoone juures on olemas ka parkla.",662-1486.jpg,Kaisma Rahvamaja,"Kultuurimaja, Kaisma küla, Põhja-Pärnumaa vald, Pärnu maakond","1486",heli.sinijoe@mail.ee,"+37258887257","+3725292045","6",false,2023/03/03,,
59.459856,28.041597,"{ ""2023-02-27 - 2023-03-04"": [ ""12:00 - 20:00"" ], ""2023-03-05"": [ ""09:00 - 20:00"" ] }",Ligipääs olemas.,716-1487.jpg,Narva-Jõesuu Noortekeskus,"Kesk tn 3, Narva-Jõesuu linn, Narva-Jõesuu linn, Ida-Viru maakond","1487",sirje.neeme@narva-joesuu.ee,"+37258887155","+37258887155","1",true,2023/03/03,,
59.373973,27.875293,"{ ""2023-03-03 - 2023-03-04"": [ ""12:00 - 20:00"" ], ""2023-03-05"": [ ""09:00 - 20:00"" ] }",Ligipääs on olemas.,717-1489.jpg,Endine Vaivara vallamaja,"Pargi tn 2, Sinimäe alevik, Narva-Jõesuu linn, Ida-Viru maakond","1489",angelinaspost@gmail.com,"+37258887156","+37258887156","2",false,2023/03/03,26.1636072065584,58.2999989835351
59.393903,28.131799,"{ ""2023-03-03 - 2023-03-04"": [ ""12:00 - 20:00"" ], ""2023-03-05"": [ ""09:00 - 20:00"" ] }",Ligipääs on olemas.,,Olgina Rahvamaja,"Narva mnt 12, Olgina alevik, Narva-Jõesuu linn, Ida-Viru maakond","1492",olginark@vaivara.ee,"+37258887157","+37258887157","3",false,2023/03/03,26.1636072065584,58.2999989835351
59.3526,24.056393,"{ ""2023-02-27 - 2023-03-04"": [ ""12:00 - 20:00"" ], ""2023-03-05"": [ ""09:00 - 20:00"" ] }",Ligipääsetavus on olemas - Olemas invalift. Uste avamine võib olla raskendatud. Parkimisvõimalused lähedal - invaparkla eraldi märgistamata,722-1494.jpg,Lääne-Harju Valla Raamatukogu,"Rae tn 38, Paldiski linn, Lääne-Harju vald, Harju maakond","1494",helje.jaanimagi@laaneharju.ee,"+37258887100","+37258887100","1",true,2023/03/03,,
59.2258,24.143772,"{ ""2023-03-04"": [ ""12:00 - 20:00"" ], ""2023-03-05"": [ ""09:00 - 20:00"" ] }",,724-1496.jpg,Lääne-Harju  Kultuurikeskuse  Padise  rahvamaja (endine Padise vallamaja),"Vallamaja, Padise küla, Lääne-Harju vald, Harju maakond","1496",marikalaanes@hot.ee,"+37258887101","+37258887100","2",false,2023/03/03,,
59.228033,24.014012,"{ ""2023-03-03"": [ ""12:00 - 20:00"" ] }",Uste avamisel võib ratastooli puhul olla vajalik abi. Juhendajat võivad vajada nägemispuudega inimesed.  ,724-1497.jpg,"Lääne-Harju Valla Raamatukogu Harju-Risti 
raamatukogu (Risti koolimaja)","Risti kool, Harju-Risti küla, Lääne-Harju vald, Harju maakond","1497",marikalaanes@hot.ee,"+37258887101","+37258887100","2",false,2023/03/03,,
59.243485,24.290023,"{ ""2023-03-03 - 2023-03-04"": [ ""12:00 - 20:00"" ], ""2023-03-05"": [ ""09:00 - 20:00"" ] }",Sisenemiseks on olemas kaldtee. Uste avamine võib vajada abi. Nägemispuudega valija vajab juhendajat. Hoone juures lähedal parkimisvõimalus. ,,Vasalemma kogukonnamaja (Vasalemma endine vallamaja),"Ranna tee 8, Vasalemma alevik, Lääne-Harju vald, Harju maakond","1498",siskamolder@gmail.com,"+37258887102","+37258887100","3",false,2023/03/03,26.1636072065584,58.2999989835351
59.376464,24.242194,"{ ""2023-03-04"": [ ""12:00 - 20:00"" ], ""2023-03-05"": [ ""09:00 - 20:00"" ] }","Parkimisvõimalus, uste avamine võib vajada abi, nägemispuudega valija võib vajada juhendajat ",726-1500.jpg,Laulasmaa Kooli spordihoone,"Kloogaranna tee 20, Laulasmaa küla, Lääne-Harju vald, Harju maakond","1500",marily.haitson@laaneharju.ee,"+37258887103","+37258887100","4",false,2023/03/03,,
59.3353952311221,25.3349468061133,"{ ""2023-02-27 - 2023-03-04"": [ ""12:00 - 20:00"" ], ""2023-03-05"": [ ""09:00 - 20:00"" ] }",Ligipääsetav ratastooli ja lapsevankriga,,Kehra rahvamaja,"F. R. Kreutzwaldi tn 2, Kehra linn, Anija vald, Harju maakond","1503",valimised@anija.ee,"+37258887082","+37255511866","1",true,2023/03/03,,
59.2476088243646,25.3282401913517,"{ ""2023-03-03 - 2023-03-04"": [ ""12:00 - 20:00"" ], ""2023-03-05"": [ ""09:00 - 20:00"" ] }",Ligipääsetav ratastooli ja lapsevankriga.,,Alavere rahvamaja,"Kose mnt 1, Alavere küla, Anija vald, Harju maakond","1504",valimised@anija.ee,"+37258887083","+37255511866","2",false,2023/03/03,26.1636072065584,58.2999989835351
59.2880203707145,25.6139552852461,"{ ""2023-03-03 - 2023-03-04"": [ ""12:00 - 20:00"" ], ""2023-03-05"": [ ""09:00 - 20:00"" ] }",Ligipääsetav ratastooli ja lapsevankriga.,,Aegviidu rahvamaja,"Pärna tn 12, Aegviidu alev, Anija vald, Harju maakond","1506",valimised@anija.ee,"+37258887084","+37255511866","3",false,2023/03/03,26.1636072065584,58.2999989835351
59.292323,24.322795,"{ ""2023-03-03"": [ ""12:00 - 20:00"" ] }",,726-1508.jpg,Laulasmaa Kooli Lehola koolimaja,"Orisküla tee 20, Lehola küla, Lääne-Harju vald, Harju maakond","1508",marily.haitson@laaneharju.ee,"+37258887103","+37258887100","4",false,2023/03/03,,
58.6528584961345,25.9791386321308,"{ ""2023-02-27 - 2023-03-04"": [ ""12:00 - 20:00"" ], ""2023-03-05"": [ ""09:00 - 20:00"" ] }",Sissepääs võimalik ratastooli ja lapsevankriga,730-1509.jpg,Põltsamaa Kultuurikeskus,"J. Kuperjanovi tn 1, Põltsamaa linn, Põltsamaa vald, Jõgeva maakond","1509",valimised1@poltsamaa.ee,"+37258887174","+37253020509","1",true,2023/03/03,,
58.7065165793903,25.8961380171999,"{ ""2023-03-03"": [ ""12:00 - 20:00"" ], ""2023-03-05"": [ ""09:00 - 20:00"" ] }",Sissepääs võimalik ratastooli ja lapsevankriga,731-1512.jpg,Põltsamaa Valla Päevakeskus,"Pargi tn 2, Adavere alevik, Põltsamaa vald, Jõgeva maakond","1512",valimised2@poltsamaa.ee,"+37258887175","+37253020509","2",false,2023/03/03,,
58.641695,25.89133,"{ ""2023-03-04"": [ ""12:00 - 20:00"" ] }",Ligipääsetav lapsevankri ja ratastooliga. Parkida saab valimiste ajal hoone ees olevas parklas.,731-1513.jpg,Endine Esku koolihoone,"Kooli tee 2, Esku küla, Põltsamaa vald, Jõgeva maakond","1513",valimised2@poltsamaa.ee,"+37258887175","+37253020509","2",false,2023/03/03,,
58.7315190930259,26.2136436532372,"{ ""2023-03-03"": [ ""12:00 - 20:00"" ] }",Ligipääs ratastooli ja lapsevankriga,732-1514.jpg,Aidu Raamatukogu,"Kooli tee 7, Vägari küla, Põltsamaa vald, Jõgeva maakond","1514",valimised3@poltsamaa.ee,"+37258887176","+37253020509","3",false,2023/03/03,,
58.7232594083695,25.9620997365954,"{ ""2023-03-04"": [ ""12:00 - 20:00"" ], ""2023-03-05"": [ ""09:00 - 20:00"" ] }",Sissepääs võimalik ratastooli ja lapsevankriga,732-1515.jpg,Pisisaare spordikeskuses asuv raamatukogu ruum,"Kooli, Pisisaare küla, Põltsamaa vald, Jõgeva maakond","1515",valimised3@poltsamaa.ee,"+37258887176","+37253020509","3",false,2023/03/03,,
58.6636954171171,26.0891067942471,"{ ""2023-03-03 - 2023-03-04"": [ ""12:00 - 20:00"" ], ""2023-03-05"": [ ""09:00 - 20:00"" ] }",Ligipääs ratastooli ja lapsevankriga,733-1517.jpg,Lustivere Külaseltsi hoone,"Mõisa tee 9, Lustivere küla, Põltsamaa vald, Jõgeva maakond","1517",valimised4@poltsamaa.ee,"+37258887177","+37253020509","4",false,2023/03/03,26.1636072065584,58.2999989835351
58.5762859715965,26.2887944012437,"{ ""2023-03-03 - 2023-03-04"": [ ""12:00 - 20:00"" ], ""2023-03-05"": [ ""09:00 - 20:00"" ] }",Ligipääsetav ratastooli ja lapsevankriga,734-1519.jpg,Puurmani teenuskeskus,"Tallinna mnt 1, Puurmani alevik, Põltsamaa vald, Jõgeva maakond","1519",valimised5@poltsamaa.ee,"+37258887178","+37253020509","5",false,2023/03/03,26.1636072065584,58.2999989835351
58.2725515105432,26.5212006731128,"{ ""2023-02-27 - 2023-03-04"": [ ""12:00 - 20:00"" ], ""2023-03-05"": [ ""09:00 - 20:00"" ] }",Kaldtee liikumispuudega isikutele.,736-1522.jpg,Nõo vallamaja,"Voika tn 23, Nõo alevik, Nõo vald, Tartu maakond","1522",kristi.voore@nvv.ee,"+37258887327","+37258887327","1",true,2023/03/03,,
58.2656735783201,26.4659624586915,"{ ""2023-03-03 - 2023-03-04"": [ ""12:00 - 20:00"" ], ""2023-03-05"": [ ""09:00 - 20:00"" ] }",Liikumispuudega isikutele on ligipääs tagatud.,737-1523.jpg,Tartu Observatooriumi Külastuskeskus,"Observatooriumi tn 1, Tõravere alevik, Nõo vald, Tartu maakond","1523",piret.retter@nvv.ee,"+37258887328","+37258887327","2",false,2023/03/03,26.1636072065584,58.2999989835351
58.2386311716397,26.5375910815923,"{ ""2023-03-03 - 2023-03-04"": [ ""12:00 - 20:00"" ], ""2023-03-05"": [ ""09:00 - 20:00"" ] }",Liikumispuudega (ratastoolis) isikutel pöörduda jaoskond nr 1 poole.,738-1525.jpg,Nõo raamatukogu harukogu Lukel,"Vanajärve tn 2, Luke küla, Nõo vald, Tartu maakond","1525",margit.paap@mail.ee,"+37258887329","+37258887327","3",false,2023/03/03,26.1636072065584,58.2999989835351
59.319961,24.234963,"{ ""2023-03-03 - 2023-03-04"": [ ""12:00 - 20:00"" ], ""2023-03-05"": [ ""09:00 - 20:00"" ] }","Olemas kaldtee, ustest läbimine võib vajada abi. Parkimine lähedal. Nägemispuudega isikud võivad vajada ajuhendajat.  ",735-1527.jpg,Lääne-Harju  Kultuurikeskuse Klooga  maja,"Aedlinna tee 3, Klooga alevik, Lääne-Harju vald, Harju maakond","1527",triin.kalvistu@gmail.com,"+37258887104","+37258887100","5",false,2023/03/03,26.1636072065584,58.2999989835351
57.9869053134081,26.7542873514989,"{ ""2023-02-27 - 2023-03-04"": [ ""12:00 - 20:00"" ], ""2023-03-05"": [ ""09:00 - 20:00"" ] }","Lähedal Kanepi bussipeatus, ratastooliga ja lapsevankriga ligipääsetav",740-1529.jpg,Kanepi Seltsimaja,"A. Weizenbergi tn 31, Kanepi alevik, Kanepi vald, Põlva maakond","1529",eda.tarend@kanepi.ee,"+37258887230","+37258887230","1",true,2023/03/03,,
58.0722963282051,26.8317853442974,"{ ""2023-03-03"": [ ""12:00 - 20:00"" ], ""2023-03-05"": [ ""09:00 - 20:00"" ] }","Lähedal bussipeatus, ratastooliga ja lapsevankriga ligipääsetav",741-1531.jpg,Krootuse külakeskus (endine Kõlleste vallamaja),"Pargi tn 3, Krootuse küla, Kanepi vald, Põlva maakond","1531",ly.vatson@kanepi.ee,"+37258887231","+37258887231","2",false,2023/03/03,,
57.9799404735707,26.8743967227027,"{ ""2023-03-04"": [ ""12:00 - 20:00"" ] }","Lähedal bussipeatus, ratastooliga ja lapsevankriga ligipääsetav",741-1533.jpg,Põlgaste raamatukogu-külakeskus,"Saia tee 2, Põlgaste küla, Kanepi vald, Põlva maakond","1533",ly.vatson@kanepi.ee,"+37258887231","+37258887231","2",false,2023/03/03,,
58.0708788246651,26.7373610760084,"{ ""2023-03-03 - 2023-03-04"": [ ""12:00 - 20:00"" ], ""2023-03-05"": [ ""09:00 - 20:00"" ] }",Lähedal bussipeatus,742-1534.jpg,Saverna külakeskus (endine Valgjärve vallamaja),"Kooli tee 5, Saverna küla, Kanepi vald, Põlva maakond","1534", maire.meitsar@mail.ee,"+37258887232","+37258887232","3",false,2023/03/03,26.1636072065584,58.2999989835351
58.9450246974674,23.5395497122528,"{ ""2023-02-27 - 2023-03-04"": [ ""12:00 - 20:00"" ], ""2023-03-05"": [ ""09:00 - 20:00"" ] }",Ratastooliga ligipääs tagatud,744-1537.jpg,Haapsalu Kultuurikeskus,"Posti tn 3, Haapsalu linn, Haapsalu linn, Lääne maakond","1537",marina.tammik@haapsalulv.ee,"+37258887193","+37258887193","1",true,2023/03/03,,
58.9349553760103,23.5534905256608,"{ ""2023-03-03 - 2023-03-04"": [ ""12:00 - 20:00"" ], ""2023-03-05"": [ ""09:00 - 20:00"" ] }",Ratastooliga ligipääs tagatud,745-1539.jpg,Haapsalu Muusikakool,"Kastani tn 7, Haapsalu linn, Haapsalu linn, Lääne maakond","1539",liivi.ollino@gmail.com,"+37258887194",,"2",false,2023/03/03,26.1636072065584,58.2999989835351
58.9354885737898,23.541621530032,"{ ""2023-03-03 - 2023-03-04"": [ ""12:00 - 20:00"" ], ""2023-03-05"": [ ""09:00 - 20:00"" ] }",Ratastooliga ligipääs tagatud,746-1541.jpg,Haapsalu kolledž,"Lihula mnt 12/1, Haapsalu linn, Haapsalu linn, Lääne maakond","1541",kersti.lohmus@haapsalulv.ee,"+37258887195",,"3",false,2023/03/03,26.1636072065584,58.2999989835351
58.8297312290725,23.5795496910004,"{ ""2023-03-03 - 2023-03-04"": [ ""12:00 - 20:00"" ], ""2023-03-05"": [ ""09:00 - 20:00"" ] }",Ratastooliga ligipääs tagatud,747-1543.jpg,Ridala Põhikool,"Kooli tn 4, Panga küla, Haapsalu linn, Lääne maakond","1543",eda.kivimae@gmail.com,"+37258887196","+37258887196","4",false,2023/03/03,26.1636072065584,58.2999989835351
59.579325,25.966456,"{ ""2023-02-27 - 2023-02-28"": [ ""12:00 - 20:00"" ] }","Ratastooliga kui ka lapsekäruga ligipääs olemas. Hääletamisruum asub I korrusel. Ühistranspordi peatus Võsu keskuses (ca 300 m), hoone ees parkla.",748-1545.jpg,Võsu rannaklubi,"Mere tn 6, Võsu alevik, Haljala vald, Lääne-Viru maakond","1545",marju.kirsipu@haljala.ee,"+3728887206","+37258887206","1",true,2023/03/03,,
59.434499,26.261613,"{ ""2023-03-01 - 2023-03-04"": [ ""12:00 - 20:00"" ], ""2023-03-05"": [ ""09:00 - 20:00"" ] }",Hääletamisruum asub I korrusel. Hoonesse on ratastooliga ligipääs olemas. Ühistranspordipetus on Haljala keskuses (ca 300m). Hoone ees parkla.,748-1546.jpg,Haljala valla kultuuri- ja vabaajakeskus,"Tallinna mnt 13, Haljala alevik, Haljala vald, Lääne-Viru maakond","1546",marju.kirsipu@haljala.ee,"+3728887206","+37258887206","1",true,2023/03/03,,
59.579325,25.966456,"{ ""2023-03-03 - 2023-03-04"": [ ""12:00 - 20:00"" ], ""2023-03-05"": [ ""09:00 - 20:00"" ] }",Ligipääs ratastooliga kui ka lapsekäruga olemas. Hääletamisruum asub I korrusel Võsu rannaklubi saalis. Hoonesse sisenemine peauksest. Hoone ees parkla. Ühistranspordipeatus Võsu keskuses (ca 300m).,749-1548.jpg,Võsu rannaklubi,"Mere tn 6, Võsu alevik, Haljala vald, Lääne-Viru maakond","1548",anneli.kivisaar@haljala.ee,"+37258887207","+37258887207","2",false,2023/03/03,26.1636072065584,58.2999989835351
58.8470775547821,26.9436579978131,"{ ""2023-02-27 - 2023-03-04"": [ ""12:00 - 20:00"" ], ""2023-03-05"": [ ""09:00 - 20:00"" ] }","Ligipääsetavus väga hea, kaldtee, uksed avarad.",758-1563.jpg,Mustvee Kultuurikeskus,"Tartu tn 12, Mustvee linn, Mustvee vald, Jõgeva maakond","1563",valimised@mustvee.ee,"+37258887168","+37258887168","1",true,2023/03/03,,
58.9862864541659,26.8680895972459,"{ ""2023-03-03 - 2023-03-04"": [ ""12:00 - 20:00"" ], ""2023-03-05"": [ ""09:00 - 20:00"" ] }","Ligipääs hea, kaldtee, hääletamisruum asub I korrusel.",,Avinurme Kultuurikeskus,"Võidu tn 9, Avinurme alevik, Mustvee vald, Jõgeva maakond","1565",valimised@mustvee.ee,"+37258887169","+37258887169","2",false,2023/03/03,26.1636072065584,58.2999989835351
58.792186,26.962213,"{ ""2023-03-03 - 2023-03-04"": [ ""12:00 - 20:00"" ], ""2023-03-05"": [ ""09:00 - 20:00"" ] }",Puudub trepp.,,Kasepää Rahvamaja,"Sõpruse tn 105, Kasepää küla, Mustvee vald, Jõgeva maakond","1567",valimised@mustvee.ee,"+37258887170","+37258887170","3",false,2023/03/03,26.1636072065584,58.2999989835351
58.948931,27.047862,"{ ""2023-03-03 - 2023-03-04"": [ ""12:00 - 20:00"" ], ""2023-03-05"": [ ""09:00 - 20:00"" ] }","Kaldtee, hääletamisruum I korrusel.",,Lohusuu Vabaajakeskus,"Jõe tn 1, Lohusuu alevik, Mustvee vald, Jõgeva maakond","1569",valimised@mustvee.ee,"+37258887171","+37258887171","4",false,2023/03/03,26.1636072065584,58.2999989835351
